id,name,lat,long,location_name,region_name,country_name
1517,"Banana Reef",4.24139,73.5346,"Male Atoll","Laccadive Sea",Maldives
1520,"Fish Head Mushi Mas Mingili Thila",3.94229,72.9122,"Ari Atoll","Laccadive Sea",Maldives
1523,"Guraidhoo Kandu",4.213,72.7248,"Male Atoll","Laccadive Sea",Maldives
1524,"Hp Reef",4.1885,73.3469,"Male Atoll","Laccadive Sea",Maldives
1526,"Kandooma Thila",3.56162,72.9253,"Male Atoll","Laccadive Sea",Maldives
1528,"Kudarah Thila",3.56265,72.9264,"Ari Atoll","Laccadive Sea",Maldives
1529,"Lion's Head",4.17468,73.4203,"Male Atoll","Laccadive Sea",Maldives
1530,"Maalhos Thila",4.00038,72.7199,"Ari Atoll","Laccadive Sea",Maldives
1531,"Maaya Thila",4.0547,72.5173,"Ari Atoll","Laccadive Sea",Maldives
1532,"Maldives Victory Wreck",4.1795,73.5257,"Male Atoll","Laccadive Sea",Maldives
1533,"Nassimo Thila",4.09572,72.8691,"Male Atoll","Laccadive Sea",Maldives
1534,"Okobe Thila",4.295,73.5141,"Male Atoll","Laccadive Sea",Maldives
1535,"Rangali Madivaru",3.35272,72.4315,"Ari Atoll","Laccadive Sea",Maldives
7266,Gaamaadhoo,3.20278,73.2207,"Dhonveli Island, North Male Atoll","leccadive sea",Maldives
7286,Aquarium,4.25343,73.553,"Dhonveli Island, North Male Atoll","Laccadive Sea",Maldives
8123,"Kuda Giri",3.92844,73.0999,"Male Atoll","South Ari Atoll",Maldives
8124,"Guraïhu Corner",3.92844,73.0999,"Male Atoll","South Ari Atoll",Maldives
8125,"Hudu Thila",3.92844,73.0999,"Male Atoll","South Ari Atoll",Maldives
8126,"Broken Rock",3.92844,73.0999,"Ari Atoll","South Ari Atoll",Maldives
8127,"Kudarah Thila",3.563,72.926,"Ari Atoll","Laccadive Sea",Maldives
8133,"Maya Thila",4.18173,72.8119,"Ari Atoll","Laccadive Sea",Maldives
9132,"Sun Island's House Reef",3.48849,72.8013,"Male Atoll","Laccadive Sea",Maldives
9133,"Nalaguraidhoo Thila",3.49674,72.7853,"Male Atoll","Laccadive Sea",Maldives
13863,"Emboodhoo Express",4.18113,73.5161,"Male Atoll","Laccadive Sea",Maldives
13865,"Gvraidhoo Corner",4.04315,72.6259,"Male Atoll","Laccadive Sea",Maldives
13866,"Maaga Kan Thica",3.84419,72.6375,"Ari Atoll","Laccadive Sea",Maldives
13867,"Kvdarah Thica",3.48589,72.9813,"Ari Atoll","Laccadive Sea",Maldives
13868,"Bodu Pinolhv Thica",3.66133,73.0637,"Ari Atoll","Laccadive Sea",Maldives
13869,"Holiday Out",3.89852,72.5173,"Ari Atoll","Laccadive Sea",Maldives
13870,"Maamineili Corner",3.85789,72.6155,"Ari Atoll","Laccadive Sea",Maldives
13871,"Rangali Madivaru",3.51528,72.6183,"Ari Atoll","Laccadive Sea",Maldives
13872,"Sun Island Out",3.27346,73.0166,"Ari Atoll","Laccadive Sea",Maldives
13873,"Panet Tone",3.22684,72.7611,"Ari Atoll","Laccadive Sea",Maldives
14459,"Kuda Thila",4.20113,72.811,"Ari Atoll","Laccadive Sea",Maldives
14460,"Das Kurani",4.19701,72.7847,"Ari Atoll","Laccadive Sea",Maldives
14461,"Angothi Thila",3.88333,72.8333,"Ari Atoll","North Ari Atoll",Maldives
15149,"Laguna Kuramathi",4.261,72.9782,"Kuramathi (Rasdhoo Atoll)","Indian Ocean",Maldives
16203,"Kuredu House Reef",5.55,73.45,"Kuredu, Lhaviyani Atoll","Laccadive Sea",Maldives
16208,"Bodu Giri",5.3747,73.5123,"Lhaviyani Atoll","Laccadive Sea",Maldives
16209,"Anemone Thila",5.3747,73.5123,"Lhaviyani Atoll","Laccadive Sea",Maldives
16210,"Mashura Outreef",5.3747,73.5123,"Lhaviyani Atoll","Laccadive Sea",Maldives
16211,Aquarium,6.17511,73.135,"Lhaviyani Atoll","Océan indien",Maldives
17692,"Hilton Madives House Reef",5.74824,73.3158,"Noonu Atoll, Maldives","Laccadive Sea",Maldives
17790,"Sun Island's House Reef",3.48849,72.8013,"Male Atoll","Laccadive Sea",Maldives
19659,"Kuhdi Maa Wreck, Centara",3.59326,72.8838,"South Ari Atoll","Laccadive Sea",Maldives
19670,"Angaga Thila",3.64954,72.8216,"South Ari Atoll","Laccadive Sea",Maldives
19671,"Coral Garden",3.66693,72.8394,"South Ari Atoll","Laccadive Sea",Maldives
19770,"Miyaru Thila",3,73.5361,"Vaavu Atoll","Indian Ocean",Maldives
20036,"Origandu Finolhu",3.80886,73.3926,"atoll sud","Indian Ocean",Maldives
22297,"Bappolhi Thila",3.20278,73.2207,"South Ari Atoll","Indian Ocean",Maldives
22935,"Manta Point",4.27948,73.5549,"Male' Atoll","Indian Ocean",Maldives
23054,"Kandooma Thila",3.90888,73.4736,"Male Atoll","Laccadive Sea",Maldives
23055,"Guraidhoo Corner",3.89006,73.4694,"Male Atoll","Laccadive Sea",Maldives
23056,"Kuda Giri Wreck",3.97135,73.4892,"Male Atoll","Laccadive Sea",Maldives
23057,"Olhuveli Beach Resort & Spa House Reef",3.84948,73.4523,"Male Atoll","Laccadive Sea",Maldives
23058,"Madhoo Beru",3.86081,73.4678,"Male Atoll","Laccadive Sea",Maldives
23059,"Seenu Giri",3.90001,73.4113,"Male Atoll","Laccadive Sea",Maldives
23060,"Banana Reef",3.89551,73.4585,"Male Atoll","Laccadive Sea",Maldives
23061,"Middle Point",3.89188,73.4671,"Male Atoll","Laccadive Sea",Maldives
24584,Labyrince,4.219,73.4613,"North Male Atoll","North Male Atoll",Maldives
24585,"Guraidhoo Kandu",3.89091,73.4519,"South Male Atoll","South Male Atoll",Maldives
24586,"Alimatha Miyaru Kandu",3.581,73.5065,"Felidhoo Atoll","Felidhoo Atoll",Maldives
24587,"Vattaru Kandu",3.21945,73.4241,"Felidhoo Atoll","Felidhoo Atoll",Maldives
24588,"Mulhah Kandu",2.93859,73.596,"Meemu Atoll","Meemu Atoll",Maldives
24590,"Hakura Giri",2.89563,73.5475,"Meemu Atoll","Meemu Atoll",Maldives
24591,"Boahura Corner",2.92994,73.5857,"Meemu Atoll","Meemu Atoll",Maldives
24592,"Methufaur Kandu",3.16308,73.4712,"Meemu Atoll","Meemu Atoll",Maldives
24593,"Gubarra Giri",3.37365,73.4375,"Felidhoo Atoll","Felidhoo Atoll",Maldives
24594,"Rakeedho Kandu",3.3092,73.471,"Felidhoo Atoll","Felidhoo Atoll",Maldives
24595,"Golden Wall",3.44934,73.604,"Felidhoo Atoll","Felidhoo Atoll",Maldives
24596,"Boamas Kandu",3.67097,73.3962,"Felidhoo Atoll","Felidhoo Atoll",Maldives
24597,Fulidhoo,3.68362,73.4165,"Felidhoo Atoll","Felidhoo Atoll",Maldives
24598,"Cocoa Corner",3.55,73.28,"South Male Atoll","South Male Atoll",Maldives
24599,"Kuda Giri",3.97322,73.491,"South Male Atoll","South Male Atoll",Maldives
24600,"Miyaru Faru Kandu",3.98771,73.5159,"South Male Atoll","South Male Atoll",Maldives
24601,"Lankan Finolhu",4.28591,73.567,"North Male Atoll","North Male Atoll",Maldives
24602,"Lankan Finolhu",4.28591,73.567,"North Male Atoll","North Male Atoll",Maldives
24966,"Makura Thila",4.17697,72.8646,"North Male Atoll","North Male Atoll",Maldives
24967,"Lankan Finolhu",4.28591,73.567,"North Male Atoll","North Male Atoll",Maldives
24968,"Kuda Giri",3.97322,73.491,"South Male Atoll","South Male Atoll",Maldives
24969,"Guraidhoo Kandu",3.89091,73.4519,"South Male Atoll","South Male Atoll",Maldives
24970,"Losfushi Kandu",3.89361,73.4892,"South Male Atoll","South Male Atoll",Maldives
24971,"Maadhoo Beyru",3.87734,73.4558,"South Male Atoll","South Male Atoll",Maldives
24972,"Mathu Kandu",3.67414,73.4376,"South Male Atoll","South Male Atoll",Maldives
24974,"Devana Kandu",3.578,73.505,"Felidhoo Atoll","Felidhoo Atoll",Maldives
24975,"Vakaru Thila",3.5738,72.9122,"South Ari Atoll","South Ari Atoll",Maldives
24976,"Gethi Beyru",3.57405,72.9029,"South Ari Atoll","South Ari Atoll",Maldives
24977,"Five Rock",3.57818,72.9009,"South Ari Atoll","South Ari Atoll",Maldives
24978,"Finolu Out",3.49234,72.8988,"South Ari Atoll","South Ari Atoll",Maldives
24979,"Dhigu Faru",3.4907,72.9017,"South Ari Atoll","South Ari Atoll",Maldives
24980,"Dhigu Faru",3.4907,72.9017,"South Ari Atoll","South Ari Atoll",Maldives
24981,"Dhigu Faru",3.4907,72.9017,"South Ari Atoll","South Ari Atoll",Maldives
24982,"Maamigili Out",3.46274,72.8313,"South Ari Atoll","South Ari Atoll",Maldives
24983,"Ranvelhi Thila",3.60994,72.9613,"South Ari Atoll","South Ari Atoll",Maldives
24984,"Vilamendhoo Thila",3.63407,72.9659,"South Ari Atoll","South Ari Atoll",Maldives
24985,"Kuda Giri",3.97322,73.491,"South Male Atoll","South Male Atoll",Maldives
24986,"Bodhu Faru",3.5744,72.9454,"South Ari Atoll","South Ari Atoll",Maldives
24987,"Finolu Out",3.49234,72.8988,"South Ari Atoll","South Ari Atoll",Maldives
24988,"Mas Thila",3.94333,72.9167,"South Ari Atoll","South Ari Atoll",Maldives
24989,"Kandholhudhoo Thila",4.02761,72.8806,"North Ari Atoll","North Ari Atoll",Maldives
24990,"Maaya Thila",4.09117,72.862,"North Ari Atoll","North Ari Atoll",Maldives
24991,"Maaya Thila",4.09117,72.862,"North Ari Atoll","North Ari Atoll",Maldives
24992,"Batala Maga Kan Thila",3.86667,72.8333,"North Ari Atoll","North Ari Atoll",Maldives
24993,"Lankan Finolhu",4.28591,73.567,"North Male Atoll","North Male Atoll",Maldives
24994,"Lankan Finolhu",4.28591,73.567,"North Male Atoll","North Male Atoll",Maldives
24995,"Rasdhoo Madivaru",4.26469,73.0018,"Rasdhoo Atoll","Rasdhoo Atoll",Maldives
24996,"Rasdhoo Madivaru",4.26469,73.0018,"Rasdhoo Atoll","Rasdhoo Atoll",Maldives
24997,"Makura Thila",4.17697,72.8646,"North Ari Atoll","North Ari Atoll",Maldives
24998,"Kandholhudhoo Thila",4.02761,72.8806,"North Ari Atoll","North Ari Atoll",Maldives
24999,"Maaya Thila",4.09117,72.862,"North Ari Atoll","North Ari Atoll",Maldives
25000,"Maaya Thila",4.09117,72.862,"North Ari Atoll","North Ari Atoll",Maldives
25001,"Fish Head",3.91664,72.8996,"North Ari Atoll","North Ari Atoll",Maldives
25002,"Dega Thila",3.79232,72.7384,"South Ari Atoll","South Ari Atoll",Maldives
25003,"Dhigga Thila",3.802,72.727,"South Ari Atoll","South Ari Atoll",Maldives
25004,"Migili Out",3.52114,72.9253,"South Ari Atoll","South Ari Atoll",Maldives
25005,"Finolu Out",3.49234,72.8988,"South Ari Atoll","South Ari Atoll",Maldives
25006,"Migili Out",3.52114,72.9253,"South Ari Atoll","South Ari Atoll",Maldives
25007,"Migili Corner",3.53903,72.9364,"South Ari Atoll","South Ari Atoll",Maldives
25008,"Dhigu Faru",3.4907,72.9017,"South Ari Atoll","South Ari Atoll",Maldives
25009,"Dhigurah (North)",3.51963,72.954,"South Ari Atoll","South Ari Atoll",Maldives
25010,"Five Rock",3.57818,72.9009,"South Ari Atoll","South Ari Atoll",Maldives
25011,"Omadhoo Thila",3.79513,72.9654,"South Ari Atoll","South Ari Atoll",Maldives
25012,"Maadhoo Beyru",3.87734,73.4558,"South Male Atoll","South Male Atoll",Maldives
25013,"Kandooma Thila",3.89065,73.4617,"South Male Atoll","South Male Atoll",Maldives
25014,"Losfushi Kandu",3.89361,73.4892,"South Male Atoll","South Male Atoll",Maldives
25015,"Maadhoo Beyru",3.87734,73.4558,"South Male Atoll","South Male Atoll",Maldives
25016,"Cocoa Corner",3.55,73.28,"South Male Atoll","South Male Atoll",Maldives
25017,"Kuda Giri",3.97322,73.491,"South Male Atoll","South Male Atoll",Maldives
25018,"Laguna Caves",4.16875,73.4847,"South Male Atoll","South Male Atoll",Maldives
27114,Madivaru,4.25826,72.9921,"Kuramathi (Rasdhoo Atoll)","Indian Ocean",Maldives
27115,"Wreck Of Kuramathi Queen",4.26192,72.9775,"Kuramathi (Rasdhoo Atoll)","Indian Ocean",Maldives
28036,"Hafxa Thila",3.48703,72.8662,"South Ari Atoll","Océan indien",Maldives
28068,Lhamiyaru,-0.582702,73.2323,"South Ari Atoll","Laccadive Sea",Maldives
28069,"Dhiggaa Thila",-0.582702,73.2323,"South Ari Atoll","Laccadive Sea",Maldives
28070,Bodumiyarugaa,3.47607,72.8332,"South Ari Atoll","Laccadive Sea",Maldives
28071,"Lily Thila",3.47607,72.8332,"South Ari Atoll","Laccadive Sea",Maldives
28072,"Dhidoo Faru",3.47607,72.8332,"South Ari Atoll","Laccadive Sea",Maldives
28073,"Machafushi Wreck",3,72,"South Ari Atoll","Laccadive Sea",Maldives
28074,"Omadhoo Tila",3.79202,72.963,"South Ari Atoll","South Ari Atoll",Maldives
28075,"Kandhooma Thila",4.1742,73.5109,"South Male Atoll","Laccadive Sea",Maldives
28076,"Villivaru Giri",4.1742,73.5109,"South Male Atoll","Laccadive Sea",Maldives
28077,"Velassaru Faru",3.99003,73.433,"South Male Atoll","Océan indien",Maldives
28334,"Veligandu North",4.32022,73.0071,"Rasdhoo Atoll","Indian Ocean",Maldives
29253,"Madi Kandu",3.57869,73.5066,"Felidhoo Atoll","Laccadive Sea",Maldives
29254,"Fotteyo Kandu",3.49006,73.696,"Felidhoo Atoll","Laccadive Sea",Maldives
29255,"Kandimma Giri",4.17112,72.7954,"Ari Atoll","Laccadive Sea",Maldives
29570,"Myiaru Kandu",3.59805,73.5019,"Felidhoo Atoll","Laccadive Sea",Maldives
29942,"Kuda Thila",4.20113,72.811,"Ari Atoll","Laccadive Sea",Maldives
29965,"Laguna Kuramathi",4.261,72.9782,"Kuramathi (Rasdhoo Atoll)","Indian Ocean",Maldives
30009,"Kuredu House Reef",5.55,73.45,"Kuredu, Lhaviyani Atoll","Laccadive Sea",Maldives
30334,"Kuda Giri Wreck",3.97135,73.4892,"Male Atoll","Laccadive Sea",Maldives
31175,"Fotteyo Kandu",3.48873,73.6985,"Felidhoo Atoll","Laccadive Sea",Maldives
31462,"Hanifaru Bay",5.17448,73.1425,"Baa atoll ",Hanifaru,Maldives
33930,"Bodu Giri",5.55,73.45,"Kuredu, Lhaviyani Atoll","Laccadive Sea",Maldives
35719,"Hannes Reef",4.52724,73.6405,"North Male Atoll","Indian Ocean",Maldives
35721,"Bandos Reef",4.26901,73.4886,"North Male Atoll","Indian Ocean",Maldives
35723,"Rasdhoo Reef (Outside)",4.99587,73.4673,"Rasdhoo Atoll","Indian Ocean",Maldives
35724,"Rasdhoo Reef (Channel)",4.77314,73.4483,"Rasdhoo Atoll","Indian Ocean",Maldives
35725,"Ukulhas Thila",4.27122,72.832,"North Ari Atoll","Indian Ocean",Maldives
35726,"Rasdhoo Reef (Channel)",4.26044,73.0008,"Rasdhoo Atoll","Indian Ocean",Maldives
35727,"Rasdhoo Reef (Outside)",4.25483,73.0099,"Rasdhoo Atoll","Indian Ocean",Maldives
35728,"Hannes Reef",4.25818,73.5282,"North Male Atoll","Indian Ocean",Maldives
35729,"Yussul Thila",4.10297,72.8627,"North Ari Atoll","Indian Ocean",Maldives
35730,"Maaya Thila",4.07867,72.8603,"North Ari Atoll","Laccadive Sea",Maldives
35731,"Halaveli Wreck",4.04621,72.9192,"North Ari Atoll","Laccadive Sea",Maldives
35732,"Fesdu Wreck",3.99921,72.7832,"North Ari Atoll","Indian Ocean",Maldives
35793,"Emas Thila (Himandhoo)",3.90987,72.7195,"Ari Atoll","Indian Ocean",Maldives
35794,"Furanafushi (Full Moon Resort)",4.25206,73.5488,"North Male Atoll","Laccadive Sea",Maldives
35795,"Lhohifushi (Aquarium)",4.34521,73.6172,"North Male Atoll","Laccadive Sea",Maldives
35796,"Meerufenfushi Stairs",4.46054,73.7203,"North Male Atoll","Laccadive Sea",Maldives
35797,"Far Reef Meerufenfushi",4.4584,73.7215,"North Male Atoll","Laccadive Sea",Maldives
35864,"Kurumba House Reef",4.22324,73.5162,"Kurumba Island Resort, North Male Atoll","Male Atoll",Maldives
35865,Velarossa,3.80827,72.9657,"South Ari Atoll","South Ari Atoll",Maldives
35866,Velarossa,3.80827,72.9657,"South Ari Atoll","South Ari Atoll",Maldives
35867,"Orimas Thila",3.98333,72.95,"North Ari Atoll","Indian Ocean",Maldives
35868,Panettone,3.22684,72.7611,"Ari Atoll","Laccadive Sea",Maldives
35869,"Bulha Llohi",3.84633,72.8555,"South Ari Atoll","North Ari Atoll",Maldives
35870,Raidhigaa,3.89069,72.7084,"North Ari Atoll","South Ari Atol",Maldives
35871,Madivaru,4.26474,72.9999,"South Ari Atoll","Indian Ocean",Maldives
35872,"Maamigili Beru",3.46831,72.8392,"South Ari Atoll","Laccadive Sea",Maldives
35873,"Medhu Faru",3.56951,72.9409,"South Ari Atoll","Laccadive Sea",Maldives
35874,"Emboodhoo House Reef",4.18113,73.5161,"Male Atoll","Laccadive Sea",Maldives
35875,"Emboodhoo Canyon",4.18113,73.5161,"Male Atoll","Laccadive Sea",Maldives
36041,"Hanimaadhoo Faru",6.75735,73.1748,"Hanimaadhoo Atoll","Indian Ocean",Maldives
36042,"Amba Canyon",4.19301,72.7458,"Hanimaadhoo Atoll","Indian Ocean",Maldives
36043,"Yellow Wall",4.19301,72.7458,"Hanimaadhoo Atoll","Indian Ocean",Maldives
36044,"Mati Faru",6.75735,73.1748,"Hanimaadhoo Atoll","Indian Ocean",Maldives
36045,"Malidhoo Faru",6.75735,73.1748,"Hanimaadhoo Atoll","Indian Ocean",Maldives
36046,"Thakandhoo Thila",6.75735,73.1748,"Hanimaadhoo Atoll","Indian Ocean",Maldives
36047,"Magic Mushroom",6.75735,73.1748,"Hanimaadhoo Atoll","Indian Ocean",Maldives
36048,"Nellaidhoo Thila",6.75735,73.1748,"Hanimaadhoo Atoll","Indian Ocean",Maldives
36049,"Navaidhoo Cave",6.75735,73.1748,"Hanimaadhoo Atoll","Indian Ocean",Maldives
36050,"Magic Mushroom & Reef",6.75735,73.1748,"Hanimaadhoo Atoll","Indian Ocean",Maldives
36051,"Keylakuma Thila",6.75735,73.1748,"Hanimaadhoo Atoll","Indian Ocean",Maldives
36052,"Hirimaradhoo Faru",6.75735,73.1748,"Hanimaadhoo Atoll","Indian Ocean",Maldives
36054,"Hirimaradhoo Thila",6.75735,73.1748,"Hanimaadhoo Atoll","Indian Ocean",Maldives
38368,"Lankan Manta Point",4.27991,73.557,"North Male Atoll","Indian Ocean",Maldives
38369,"Hp Reef",4.31326,73.5793,"Male Atoll","Laccadive Sea",Maldives
38451,"Gass Outside",4.1742,73.5109,"North Male Atoll","Laccadive Sea",Maldives
38460,"Thulusdoo Corner",4.37388,73.6509,"North Male Atoll","Indian Ocean",Maldives
38461,"Okobe Thila / Okkobay Thila",4.30293,73.5226,"North Male Atoll","Laccadive Sea",Maldives
38462,"Miyaru Faru",4.5303,73.6545,"North Male Atoll",Meeru,Maldives
38463,"Wari Giri",3.9771,73.4601,"South Male Atoll","Laccadive Sea",Maldives
38464,"Kuda Kandu Corner",3.89464,73.4686,"South Male Atoll","Laccadive Sea",Maldives
38465,"Medu Faru",3.88988,73.47,"South Male Atoll","Laccadive Sea",Maldives
38466,"Vaadhoo Kandu",4.1302,73.4477,"South Male Atoll","Indian Ocean",Maldives
38467,"Guraidhoo Kandu",3.88583,73.4689,"Male Atoll","Laccadive Sea",Maldives
38468,"Guraidhoo Kandu",3.88583,73.4689,"South Male Atoll","Laccadive Sea",Maldives
38469,"Embudu/Embudhoo Kandu",4.08375,73.5148,"South Male Atoll","Laccadive Sea",Maldives
38470,"Embudu/Embudhoo Thila",4.0845,73.5163,"South Male Atoll","Laccadive Sea",Maldives
38763,Mirihi,3.61864,72.7809,"South Ari Atoll","Indian Ocean",Maldives
39909,"House Reef",1.97725,73.5361,"Noonu Atoll, Maldives","Indian Ocean",Maldives
39910,"Snow White",1.97725,73.5361,"Noonu Atoll, Maldives","Indian Ocean",Maldives
39911,"Christmas Tree",5.1613,73.0557,"Noonu Atoll, Maldives","Indian Ocean",Maldives
39912,"Angel Reef",1.97725,73.5361,"Noonu Atoll, Maldives","Indian Ocean",Maldives
39913,Minaavaru,5.1613,73.0557,"Noonu Atoll, Maldives","Indian Ocean",Maldives
39914,"Raimas Thila",5.1613,73.0557,"Noonu Atoll, Maldives","Indian Ocean",Maldives
39915,"Koens Dream",4.1742,73.5109,"Noonu Atoll, Maldives","Laccadive Sea",Maldives
43676,"Kuredu Caves Turtle Airport",5.55256,73.4627,"Kuredu, Lhaviyani Atoll","Indian Ocean",Maldives
43677,Dhathafaru,1.97725,73.5361,"Noonu Atoll, Maldives","Indian Ocean",Maldives
43678,Dhathafaru,5.78553,73.2999,"Noonu Atoll, Maldives","Indian Ocean",Maldives
43679,Dhathafaru,5.78553,73.2999,"Noonu Atoll, Maldives","Laccadive Sea",Maldives
43680,"Rafushi Outreef",5.87833,73.2788,"Noonu Atoll, Maldives","Laccadive Sea",Maldives
43879,"Ishmael's Thila",5.39484,73.5358,"Kuredu, Lhaviyani Atoll","Laccadive Sea",Maldives
43882,"Mashura Outreef",5.55703,73.4939,"Lhaviyani Atoll","Laccadive Sea",Maldives
43886,"Muda Thila",5.40783,73.483,"Kuredu, Lhaviyani Atoll","Laccadive Sea",Maldives
43888,"Nakolhu Giri",5.51104,73.4459,"Kuredu, Lhaviyani Atoll","Laccadive Sea",Maldives
43889,"Kahlifushifaru Corner",5.55,73.45,"Kuredu, Lhaviyani Atoll","Laccadive Sea",Maldives
43890,"Zafari Reef",5.55,73.45,"Kuredu, Lhaviyani Atoll","Laccadive Sea",Maldives
43893,"Fusivaru Corner/Thila",5.50626,73.5214,"Kuredu, Lhaviyani Atoll","Laccadive Sea",Maldives
44167,"Shark Point",1.97725,73.5361,"South Ari Atoll","Indian Ocean",Maldives
44342,"Dega Thila",3.79232,72.7384,"South Ari Atoll","South Ari Atoll",Maldives
44626,"Banyan Tree Vabbinfaru Reef",1.97725,73.5361,"Male Atoll","Indian Ocean",Maldives
45668,"Nassimo Thila",4.27839,73.5415,"Male Atoll","Laccadive Sea",Maldives
47383,"Boduhithi Thila",0,0,"North Male Atoll","Indian Ocean",Maldives
47384,"Rasdhod Madnarv",0,0,"North Ari Atoll","Indian Ocean",Maldives
47385,"Rasdhod Madnarv",0,0,"North Ari Atoll","Indian Ocean",Maldives
47386,"Hafsha Thila",0,0,"North Ari Atoll","Indian Ocean",Maldives
47387,"Maya Thila",0,0,"North Ari Atoll","Indian Ocean",Maldives
47388,"Single Manta Night",0,0,"North Ari Atoll","Indian Ocean",Maldives
47389,"Maya Thila",0,0,"North Ari Atoll","Indian Ocean",Maldives
47390,"Bathalaa Maaga Kan Thila",0,0,"North Ari Atoll","Indian Ocean",Maldives
47391,Fishhead,0,0,"North Ari Atoll","Indian Ocean",Maldives
47392,"Orimas Thila",0,0,"North Ari Atoll","Indian Ocean",Maldives
47393,Athaboo,0,0,"North Ari Atoll","Indian Ocean",Maldives
47394,"Maalhos Thila",0,0,"North Ari Atoll","Indian Ocean",Maldives
47395,"Dhonkalo Thila",0,0,"North Ari Atoll","Indian Ocean",Maldives
47396,"Dega Thila",0,0,"South Ari Atoll","Indian Ocean",Maldives
47397,"Digga Thila",0,0,"South Ari Atoll","Indian Ocean",Maldives
47398,Kalhahadi,0,0,"South Ari Atoll","Indian Ocean",Maldives
47399,"Rangali Madivarn",0,0,"South Ari Atoll","Indian Ocean",Maldives
47400,"Rangali Madivarn",0,0,"South Ari Atoll","Indian Ocean",Maldives
47401,"Maamigio Outside",0,0,"South Ari Atoll","Indian Ocean",Maldives
47402,"Dhiguram Outside",0,0,"South Ari Atoll","Indian Ocean",Maldives
47403,"Dhiguram Outside",0,0,"South Ari Atoll","Indian Ocean",Maldives
47404,"Ari Beach Outside",0,0,"South Ari Atoll","Indian Ocean",Maldives
47405,"Kudarah Thila",0,0,"South Ari Atoll","Indian Ocean",Maldives
47406,"Broken Rock",0,0,"South Ari Atoll","Indian Ocean",Maldives
48347,"Kiki Reef",4.17192,73.4667,"North Male Atoll","Laccadive Sea",Maldives
48348,"Bathalaa Maagaa Kan Thila",4.06078,72.9576,"North Ari Atoll","Laccadive Sea",Maldives
48682,"Hafsa Thila",4.12166,72.8126,"North Ari Atoll","Laccadive Sea",Maldives
48683,"Dhonkalo Thila",3.96393,72.7162,"North Ari Atoll","Laccadive Sea",Maldives
48684,"Rangali Madivaru",4.12971,73.4357,"Ari Atoll","Laccadive Sea",Maldives
48685,"Rangali Madivaru",3.57935,72.7166,"Ari Atoll","Laccadive Sea",Maldives
48686,"Maalhos Thila",4.00038,72.7199,"North Ari Atoll","Laccadive Sea",Maldives
48687,"Rangali Madivaru",3.57935,72.7166,"South Ari Atoll","Laccadive Sea",Maldives
48688,"Maamigili Beru",3.46831,72.8392,"South Ari Atoll","Laccadive Sea",Maldives
48689,"Maamigili Outside (Holiday Outside)",3.47371,72.8442,"South Ari Atoll","Laccadive Sea",Maldives
48690,"Maamigili Beyru",3.46831,72.8392,"South Ari Atoll","Laccadive Sea",Maldives
48691,"Kudarah Thila",3.563,72.926,"South Ari Atoll","Laccadive Sea",Maldives
48692,"Kandooma Thila",3.90507,73.4767,"South Male Atoll","Laccadive Sea",Maldives
48693,"Villivaru Giri",3.9093,73.4328,"South Male Atoll","Laccadive Sea",Maldives
48694,"Lankan Manta Point",4.27991,73.557,"North Male Atoll","Laccadive Sea",Maldives
50677,"Kuredu Caves",5.46674,73.5587,"Lhavjan Atoll","Océan indien",Maldives
50678,Ahmedthila,5.46674,73.5587,"Lhavjan Atoll","Océan indien",Maldives
55066,"Vavvaru Out Reef",5.41805,73.3545,"Lhaviyani Atoll","Océan indien",Maldives
55067,"Dhonfanu Thila",5.18861,73.1224,"Baa atoll ",Hanifaru,Maldives
55068,"Dhigu Thila",4.87113,72.9999,"Baa atoll ","Dhuni Kohlu",Maldives
55069,"Kihaadhoo Ridge",5.21628,73.1254,"Baa atoll ",Hanifaru,Maldives
55071,"Dharauandhoo Thila",5.15694,73.1335,"Baa atoll ",Hanifaru,Maldives
55072,"Dhigali Haa",4.87113,72.9999,"Baa atoll ","Dhuni Kohlu",Maldives
55073,Fares,5.23229,72.877,"Baa atoll ","Indian Ocean",Maldives
55076,"Orimas Thila",5.95271,73.4151,"Noonu Atoll, Maldives","Laccadive Sea",Maldives
55077,"Dha Thaa Faru",5.95271,73.4151,"Noonu Atoll, Maldives","Laccadive Sea",Maldives
55078,"Christmas Tree Rock",5.95271,73.4151,"Noonu Atoll, Maldives","Laccadive Sea",Maldives
55079,"Raa Fushi",5.95271,73.4151,"Noonu Atoll, Maldives","Laccadive Sea",Maldives
55080,"Kuredu Express",5.55,73.45,"Lhaviyani Atoll","Laccadive Sea",Maldives
55102,"Filitheyo House Reef",3.21382,73.0368,"Nord Nilandhe Atoll","Indian Sea",Maldives
55112,"Little Channel South",3.21382,73.0368,"Nord Nilandhe Atoll","Indian Sea",Maldives
55113,"Little Channel South",3.22325,73.0358,"Nord Nilandhe Atoll","Indian Sea",Maldives
55114,"Filitheyo House Reef",3.21529,73.0368,"Nord Nilandhe Atoll","Indian Sea",Maldives
55120,"The Cathedral",3.15248,73.0029,"Nord Nilandhe Atoll, Filitheyo","Mediterranean Sea",Maldives
55121,"The Cathedral",3.15248,73.0029,"Nord Nilandhe Atoll, Filitheyo","Indian Sea",Maldives
55122,"Little Channel South",3.22325,73.0358,"Nord Nilandhe Atoll","Indian Sea",Maldives
55123,"Filitheyo House Reef",3.21529,73.0368,"Nord Nilandhe Atoll","Indian Sea",Maldives
55124,"Filitheyo House Reef",3.21529,73.0368,"Nord Nilandhe Atoll","Indian Sea",Maldives
55129,"Ibura Tila",3.16566,72.9752,"Nord Nilandhe Atoll, Filitheyo","Indian Ocean",Maldives
55143,"Bodu Beru",3.1783,72.9895,"Nord Nilandhe Atoll, Filitheyo","Indian Ocean",Maldives
55144,"Filitheyo House Reef",3.21529,73.0368,"Nord Nilandhe Atoll","Indian Ocean",Maldives
55145,"Little Channel South",3.22325,73.0358,"Nord Nilandhe Atoll","Indian Ocean",Maldives
55146,"The Cathedral",3.15248,73.0029,"Nord Nilandhe Atoll, Filitheyo","Indian Ocean",Maldives
55148,"Bodu Beru",3.18567,73.0125,"Nord Nilandhe Atoll, Filitheyo","Indian Ocean",Maldives
55149,"Bodu Beru",3.16545,72.9751,"Nord Nilandhe Atoll, Filitheyo","Indian Ocean",Maldives
55167,"Two Brothers",51.4813,10.8073,"Nord Nilandhe Atoll, Filitheyo","Indian Ocean",Maldives
55168,"Two Brothers",3.28452,72.9913,"Nord Nilandhe Atoll, Filitheyo","Indian Ocean",Maldives
55177,"Ayer's Rock",3.056,72.8892,"Nord Nilandhe Atoll, Filitheyo","Indian Oceean",Maldives
55178,"Ayer's Rock",3.16416,72.9762,"Nord Nilandhe Atoll, Filitheyo","Indian Oceean",Maldives
55179,"The Cathedral",3.18093,72.9713,"Nord Nilandhe Atoll, Filitheyo","Indian Ocean",Maldives
55240,"Veyvah Tila Medhufushi Meemu Atoll",1.84819,73.471,"Medhufushi Meemu Atoll","Medhufushi Meemu Atoll",Maldives
55241,"Simply The Best Medhufushi Meemu Atoll",0,0,"Medhufushi Meemu Atoll","Indian Ocean",Maldives
55242,"Easy Express Medhufushi Meemu Atoll",0,0,"Medhufushi Meemu Atoll","Indian Ocean",Maldives
55243,"Sharks Tongue Medhufushi Meemu Atoll",0,0,"Medhufushi Meemu Atoll","Indian Ocean",Maldives
55244,"Veyvah North Medhufushi Meemu Atoll",0,0,"Medhufushi Meemu Atoll","Indian Ocean",Maldives
55245,"Mantas And More Medhufushi Meemu Atoll",0,0,"Medhufushi Meemu Atoll","Indian Ocean",Maldives
55246,"Mantas And More Medhufushi Meemu Atoll",0,0,"Medhufushi Meemu Atoll","Indian Ocean",Maldives
55247,"Triple Rock Medhufushi Meemu Atoll",0,0,"Medhufushi Meemu Atoll","Indian Ocean",Maldives
55248,"Sharks Tongue Medhufushi Meemu Atoll",0,0,"Medhufushi Meemu Atoll","Indian Ocean",Maldives
55249,"Simply The Best Medhufushi Meemu Atoll",0,0,"Medhufushi Meemu Atoll","Indian Ocean",Maldives
55250,"Veyvah North Medhufushi Meemu Atoll",0,0,"Medhufushi Meemu Atoll","Indian Ocean",Maldives
55251,"Mantas And More Medhufushi Meemu Atoll",0,0,"Medhufushi Meemu Atoll","Indian Ocean",Maldives
55252,"Sharks Tongue Medhufushi Meemu Atoll",0,0,"Medhufushi Meemu Atoll","Indian Ocean",Maldives
55253,"Boahura Express Medhufushi Meemu Atoll",0,0,"Medhufushi Meemu Atoll","Indian Ocean",Maldives
55365,Cliffhanger,3.20598,72.9568,"Nord Nilandhe Atoll","Indian Ocean",Maldives
55404,"Takatuka Land",3.24084,73.005,"Nord Nilandhe Atoll, Filitheyo","Indian Ocean",Maldives
55776,"Veyvah Tila Medhufushi Meemu Atoll",1.84819,73.471,"Medhufushi Meemu Atoll","Medhufushi Meemu Atoll",Maldives
55777,"Simply The Best Medhufushi Meemu Atoll",1.84819,73.471,"Medhufushi Meemu Atoll","Medhufushi Meemu Atoll",Maldives
55778,"Easy Express Medhufushi Meemu Atoll",1.84819,73.471,"Medhufushi Meemu Atoll","Medhufushi Meemu Atoll",Maldives
55779,"Sharks Tongue Medhufushi Meemu Atoll",1.84819,73.471,"Medhufushi Meemu Atoll","Medhufushi Meemu Atoll",Maldives
55780,"Veyvah North Medhufushi Meemu Atoll",1.84819,73.471,"Medhufushi Meemu Atoll","Medhufushi Meemu Atoll",Maldives
55781,"Mantas And More Medhufushi Meemu Atoll",1.84819,73.471,"Medhufushi Meemu Atoll","Medhufushi Meemu Atoll",Maldives
55782,"Mantas And More Medhufushi Meemu Atoll",1.84819,73.471,"Medhufushi Meemu Atoll","Medhufushi Meemu Atoll",Maldives
55783,"Triple Rock Medhufushi Meemu Atoll",1.84819,73.471,"Medhufushi Meemu Atoll","Medhufushi Meemu Atoll",Maldives
55784,"Sharks Tongue Medhufushi Meemu Atoll",1.84819,73.471,"Medhufushi Meemu Atoll","Medhufushi Meemu Atoll",Maldives
55785,"Simply The Best Medhufushi Meemu Atoll",1.84819,73.471,"Medhufushi Meemu Atoll","Medhufushi Meemu Atoll",Maldives
55786,"Veyvah North Medhufushi Meemu Atoll",1.84819,73.471,"Medhufushi Meemu Atoll","Medhufushi Meemu Atoll",Maldives
55787,"Mantas And More Medhufushi Meemu Atoll",1.84819,73.471,"Medhufushi Meemu Atoll","Medhufushi Meemu Atoll",Maldives
55788,"Sharks Tongue Medhufushi Meemu Atoll",1.84819,73.471,"Medhufushi Meemu Atoll","Medhufushi Meemu Atoll",Maldives
55789,"Boahura Express Medhufushi Meemu Atoll",1.84819,73.471,"Medhufushi Meemu Atoll","Medhufushi Meemu Atoll",Maldives
55869,"Veyvah Tila Medhufushi Meemu Atoll",1.84819,73.471,"Medhufushi Meemu Atoll","Medhufushi Meemu Atoll",Maldives
55870,"Simply The Best Medhufushi Meemu Atoll",1.84819,73.471,"Medhufushi Meemu Atoll","Medhufushi Meemu Atoll",Maldives
55871,"Easy Express Medhufushi Meemu Atoll",1.84819,73.471,"Medhufushi Meemu Atoll","Medhufushi Meemu Atoll",Maldives
55872,"Sharks Tongue Medhufushi Meemu Atoll",1.84819,73.471,"Medhufushi Meemu Atoll","Medhufushi Meemu Atoll",Maldives
55873,"Veyvah North Medhufushi Meemu Atoll",1.84819,73.471,"Medhufushi Meemu Atoll","Medhufushi Meemu Atoll",Maldives
55874,"Mantas And More Medhufushi Meemu Atoll",1.84819,73.471,"Medhufushi Meemu Atoll","Medhufushi Meemu Atoll",Maldives
55875,"Mantas And More Medhufushi Meemu Atoll",1.84819,73.471,"Medhufushi Meemu Atoll","Medhufushi Meemu Atoll",Maldives
55876,"Triple Rock Medhufushi Meemu Atoll",1.84819,73.471,"Medhufushi Meemu Atoll","Medhufushi Meemu Atoll",Maldives
55877,"Sharks Tongue Medhufushi Meemu Atoll",1.84819,73.471,"Medhufushi Meemu Atoll","Medhufushi Meemu Atoll",Maldives
55878,"Simply The Best Medhufushi Meemu Atoll",1.84819,73.471,"Medhufushi Meemu Atoll","Medhufushi Meemu Atoll",Maldives
55879,"Veyvah North Medhufushi Meemu Atoll",1.84819,73.471,"Medhufushi Meemu Atoll","Medhufushi Meemu Atoll",Maldives
55880,"Mantas And More Medhufushi Meemu Atoll",1.84819,73.471,"Medhufushi Meemu Atoll","Medhufushi Meemu Atoll",Maldives
55881,"Sharks Tongue Medhufushi Meemu Atoll",1.84819,73.471,"Medhufushi Meemu Atoll","Medhufushi Meemu Atoll",Maldives
55882,"Boahura Express Medhufushi Meemu Atoll",1.84819,73.471,"Medhufushi Meemu Atoll","Medhufushi Meemu Atoll",Maldives
56588,"Vabbinfaru House Reef, Maldives",4.30963,73.4235,"North Male Atoll","Indian Ocean",Maldives
56589,"Maagiri Rock",4.12256,70.3378,"North Male Atoll","Indian Ocean",Maldives
56591,"Sunlight Thila",4.12256,70.3378,"North Male Atoll","Indian Ocean",Maldives
56592,"Baros Thila",4.12256,70.3378,"North Male Atoll","Indian Ocean",Maldives
56593,"Lankanfinolhu Faru",4.12256,70.3378,"North Male Atoll","Indian Ocean",Maldives
56594,"Girifushi Thila",4.12256,70.3378,"North Male Atoll","Indian Ocean",Maldives
56686,"Vabbinfaru House Reef",4.30963,73.4235,"North Male Atoll","Indian Ocean",Maldives
56687,"Maagiri Rock",4.12901,70.4442,"North Male Atoll","Indian Ocean",Maldives
56688,"Sunlight Thila",4.12901,70.4442,"North Male Atoll","Indian Ocean",Maldives
56689,"Baros Thila",4.12901,70.4442,"North Male Atoll","Indian Ocean",Maldives
56690,"Lankanfinolhu Faru",4.12901,70.4442,"North Male Atoll","Indian Ocean",Maldives
56691,"Girifushi Thila",4.12901,70.4442,"North Male Atoll","Indian Ocean",Maldives
56858,"Vabbinfaru House Reef",4.30963,73.4235,"North Male Atoll","Indian Ocean",Maldives
56859,"Maagiri Rock",4.26337,73.5317,"North Male Atoll","Indian Ocean",Maldives
56861,"Bandos Rock",4.27218,73.4938,"Male Atoll","Indian Ocean",Maldives
56862,"Sunlight Thila",4.30001,73.5318,"North Male Atoll","Indian Ocean",Maldives
56863,"Baros Thila",4.28501,73.4272,"North Male Atoll","Indian Ocean",Maldives
56864,"Lankanfinolhu Faru",4.27987,73.5572,"North Male Atoll","Indian Ocean",Maldives
56865,"Girifushi Thila",4.31864,73.5789,"North Male Atoll","Indian Ocean",Maldives
57045,"Athuruga House Reef",3.88623,72.817,"South Male Atoll","North Ari Atoll",Maldives
57541,"Moofushi House Reef",3.88565,72.7274,"Ari Atoll","Indian Ocean",Maldives
59318,"Kurumba Reef",2.59199,73.624,"Kurumba Island Resort, North Male Atoll","Laccadive Sea",Maldives
59320,"Kurumba Reef",1.82188,73.4905,"Kurumba Island Resort, North Male Atoll","Indian Ocean",Maldives
59322,"Miyaru Kandy",3,73.5361,"Vaavu Atoll","Indian Ocean",Maldives
59515,"Moofushi Channel",3.88565,72.7274,"Ari Atoll","Indian Ocean",Maldives
59818,"Ocean Dimensions Six Senses Laamu",1.8142,73.4066,"Maldives - Laamu Atoll - Olhuveli Island","Indian Ocean",Maldives
59837,"Rangali South",3.60193,72.727,"South Ari Atoll","Laccadive Sea",Maldives
59839,"Rangali South",3.60193,72.727,"South Ari Atoll","Laccadive Sea",Maldives
59840,"Angaga Thila",3.64954,72.8216,"South Ari Atoll","Laccadive Sea",Maldives
59841,"Maamigili Beru",3.46831,72.8392,"South Ari Atoll","Laccadive Sea",Maldives
59842,"Madivaru Thila",3.5955,72.736,"South Ari Atoll","Laccadive Sea",Maldives
59843,"Bulhalhohi Corner",3.74598,72.7242,"South Ari Atoll","Laccadive Sea",Maldives
59844,"Rangali Corner",3.59542,72.7199,"South Ari Atoll","Laccadive Sea",Maldives
60270,"Dhigurah Beyra",3.52036,72.922,"South Ari Atoll","Indian Ocean",Maldives
61978,"Kurumba Reef, North Malé Atoll",0,0,"North Male Atoll","Indian Ocean",Maldives
61979,"Kuda Giri Wreck, South Malé Atoll, Maldives",0,0,"South Male Atoll","Indian Ocean",Maldives
61982,"Sun Island Beyru, Maldives",0,0,"South Ari Atoll","Indian Ocean",Maldives
61983,"Kudhimaa Wreck, Maldives",0,0,"South Ari Atoll","Indian Ocean",Maldives
61984,"Radhigga Beyru, Maldives",0,0,"South Ari Atoll","Indian Ocean",Maldives
61985,"Rahdhigga Thila, Maldives",0,0,"South Ari Atoll","Indian Ocean",Maldives
61986,"Fesdu Wreck, Maldives",0,0,"North Ari Atoll","Indian Ocean",Maldives
61987,"Maalhoss Thila, Maldives",0,0,"North Ari Atoll","Indian Ocean",Maldives
61988,"Fesdu Lagoon, Maldives",0,0,"North Ari Atoll","Indian Ocean",Maldives
61989,"Fish Head, Maldives",0,0,"North Ari Atoll","Indian Ocean",Maldives
61990,"Hafsa Thila, Maldives",0,0,"North Ari Atoll","Indian Ocean",Maldives
61991,"Lankan Manta Point, South Malé Atoll, Maldives",0,0,"South Male Atoll","Indian Ocean",Maldives
62421,"Three Palms",4.25622,72.982,"Kuramathi (Rasdhoo Atoll)","Indian Ocean",Maldives
62422,"North Channel",4.32074,73.0112,"Rasdhoo Atoll","Indian Ocean",Maldives
62423,"Miyaru Faru",4.35199,72.9542,"Rasdhoo Atoll","Indian Ocean",Maldives
63294,"Lankan Manta Point, North Malé Atoll",0,0,"North Male Atoll","Indian Ocean",Maldives
63437,"Alimatha Jetty",2.83641,73.5109,"Vaavu Atoll","Indian Ocean",Maldives
63506,"Miyaru Kandu",3,73.5361,"Vaavu Atoll","Indian Ocean",Maldives
63507,"Sun Island Beyru",3.27346,73.0166,"Ari Atoll","Indian Ocean",Maldives
63508,"Sun Island Beyru",3.48849,72.8013,"South Ari Atoll","Indian Ocean",Maldives
63509,"Kudhimaa Machafushi Wreck",3.48326,72.8028,"South Ari Atoll","Indian Ocean",Maldives
63512,"Kudhimaa Wreck",3.48326,72.8028,"South Ari Atoll","Indian Ocean",Maldives
63513,"Rah Digga Beyru",3.45962,72.93,"South Ari Atoll","Indian Ocean",Maldives
63520,"Rah Digga Thila",3.46168,72.9341,"South Ari Atoll","Indian Ocean",Maldives
63521,"Maalhos Thila",4.00038,72.7199,"North Ari Atoll","Indian Ocean",Maldives
63522,"Fesdu Lagoon",3.98627,72.7663,"North Ari Atoll","Indian Ocean",Maldives
63528,"Fish Head",3.94229,72.9122,"North Ari Atoll","Indian Ocean",Maldives
63529,"Lankan Manta Point",4.27991,73.557,"North Male Atoll","Indian Ocean",Maldives
64568,"Kanifinoulhu Inside",4.34627,73.6009,"North Male Atoll","Laccadive Sea",Maldives
64869,Kudal,4.3494,73.6025,"North Male Atoll","Laccadive Sea",Maldives
65611,Fesdu,3.21529,73.0368,"North Ari Atoll","Indian Ocean",Maldives
65612,"Fish Head",4.00038,72.7199,"North Ari Atoll","Laccadive Sea",Maldives
65613,"Orimas Thila",4.00038,72.7199,"North Ari Atoll","Laccadive Sea",Maldives
65614,"Medhu Thila",4.87113,72.9999,"Baa atoll ","Dhuni Kohlu",Maldives
65616,"Mas Giri",4.87113,72.9999,"Baa atoll ","Dhuni Kohlu",Maldives
66045,"Miyaru Kandu",3.59805,73.5019,"Felidhoo Atoll","Laccadive Sea",Maldives
66159,"Rani Kan",3.82114,73.3737,"South Male Atoll","Océan indien",Maldives
66160,"Rani Kan",3.80812,73.3854,"South Male Atoll","Laccadive Sea",Maldives
66161,"Rani Kan",3.80812,73.3854,"South Male Atoll","Laccadive Sea",Maldives
66162,"Black Coral Reef",3.88861,73.4685,"South Male Atoll","Laccadive Sea",Maldives
66163,"Guraidhoo Corner",3.89006,73.4694,"South Male Atoll","Laccadive Sea",Maldives
66164,"Fushi Kandu",3.46545,73.6572,"Felidhoo Atoll","Laccadive Sea",Maldives
66708,"Miyaru Kandu",0,0,"Felidhoo Atoll","Indian Ocean",Maldives
66709,"Fulidhoo Caves",0,0,"Felidhoo Atoll","Indian Ocean",Maldives
66710,"Dhevana Kandu",0,0,"Felidhoo Atoll","Indian Ocean",Maldives
66711,"Boamas Kandu",0,0,"Felidhoo Atoll","Indian Ocean",Maldives
66930,"Aiyabe Thila",3.725,72.7603,"South Ari Atoll","Laccadive Sea",Maldives
67437,"Makadu Thila",3.73731,72.9643,"Ari Atoll","Laccadive Sea",Maldives
67438,"Kumbuludu Thila",3.73731,72.9643,"Ari Atoll","Laccadive Sea",Maldives
67439,Rakeedu,3.73731,72.9643,"Ari Atoll","Laccadive Sea",Maldives
67440,"Fulidu Diga",3.73731,72.9643,"Ari Atoll","Laccadive Sea",Maldives
67441,"Hadi Kandu",3.73731,72.9643,"Ari Atoll","Laccadive Sea",Maldives
67442,"Kunawashi Kandu",3.73731,72.9643,"Ari Atoll","Laccadive Sea",Maldives
67443,"Wadhoo Channel",3.73731,72.9643,"Ari Atoll","Laccadive Sea",Maldives
67525,"Hukuru Elhi Faru",3.47607,72.8332,"South Ari Atoll","Laccadive Sea",Maldives
67528,"Kalu Giri",3.47607,72.8332,"South Ari Atoll","Laccadive Sea",Maldives
68540,"Bis Thila",3.47607,72.8332,"South Ari Atoll","Laccadive Sea",Maldives
68541,"Kudu Thila",3.78333,72.9167,"South Ari Atoll","Laccadive Sea",Maldives
68542,Holiday,3.47607,72.8332,"South Ari Atoll","Laccadive Sea",Maldives
68543,"Kuda Clementhila",3.53888,72.8289,"South Ari Atoll","Laccadive Sea",Maldives
68544,"Pineaple Thila",3.47607,72.8332,"South Ari Atoll","Laccadive Sea",Maldives
68545,"Kuduh Rah Thila",3.47607,72.8332,"South Ari Atoll","Laccadive Sea",Maldives
68546,"Aneaga Thila",3.47607,72.8332,"South Ari Atoll","Laccadive Sea",Maldives
68952,"Kuduh Rah Thila",3.57373,72.9108,"South Ari Atoll","Laccadive Sea",Maldives
68953,"Pineaple Thila",3.68783,72.7947,"South Ari Atoll","Laccadive Sea",Maldives
68954,"Kudhimaa Wreck",3.59818,72.8821,"South Ari Atoll","Indian Ocean",Maldives
69125,"Vilamendhoo Thila",3.6337,72.9653,"South Ari Atoll","Indian Ocean",Maldives
69126,"Aneaga Thila",3.67584,72.802,"South Ari Atoll","Laccadive Sea",Maldives
69127,"Kudu Thila",3.63224,72.9322,"South Ari Atoll","Laccadive Sea",Maldives
69886,"Nassimo Thila",4.30544,73.5315,"Male Atoll","Laccadive Sea",Maldives
69913,Sunlight,0,0,"North Male Atoll","Indian Ocean",Maldives
69914,"Bodu Hithi Thila",0,0,"North Male Atoll","Indian Ocean",Maldives
69916,"Hafsa Thila, Maldives",0,0,"North Ari Atoll","Indian Ocean",Maldives
69917,"Fesdu Lagoon, Maldives",0,0,"North Ari Atoll","Indian Ocean",Maldives
69918,"Panetone, Maldives",0,0,"South Ari Atoll","Indian Ocean",Maldives
69919,"Rangail Madivaru, Maldives",0,0,"South Ari Atoll","Indian Ocean",Maldives
69920,"Sun Island Beyru, Maldives",0,0,"South Ari Atoll","Indian Ocean",Maldives
69921,"Alimatha House Reef",0,0,"Vaavu Atoll","Indian Ocean",Maldives
69922,"Hiyaru Kandu",0,0,"Vaavu Atoll","Indian Ocean",Maldives
69923,"Guraidhoo Corner, Maldives",0,0,"South Male Atoll","Indian Ocean",Maldives
69924,"Medhu Faru, Maldives",0,0,"South Male Atoll","Indian Ocean",Maldives
69925,"Kandohema Thila, Maldives",0,0,"South Male Atoll","Indian Ocean",Maldives
70018,"Lankan Reef",4.2847,73.5474,"North Male Atoll","Indian Ocean",Maldives
70019,"Kuda Giri Wreck",3.97135,73.4892,"South Male Atoll","Laccadive Sea",Maldives
70020,"Lankan Reef",4.29805,73.5505,"North Male Atoll","Laccadive Sea",Maldives
70021,"Jetty Shark Feed",3,73.5361,"Vaavu Atoll","Laccadive Sea",Maldives
70022,"Jetty Shark Feed",3.57583,73.4592,"Vaavu Atoll","Laccadive Sea",Maldives
70023,"Five Rocks Thila",3.62707,72.8226,"South Ari Atoll","Laccadive Sea",Maldives
70024,"Sun Island Outside Reef",3.4623,72.8113,"South Ari Atoll","Laccadive Sea",Maldives
70025,"Kudhimaa Wreck",3.48326,72.8028,"South Ari Atoll","Laccadive Sea",Maldives
70026,"Isis Reef",3.47607,72.8332,"South Ari Atoll","Laccadive Sea",Maldives
70027,"Lhamiyaru Thila",3.71035,72.7324,"South Ari Atoll","Laccadive Sea",Maldives
70028,"Fish Head",3.94229,72.9122,"North Ari Atoll","Laccadive Sea",Maldives
70029,"Kandholhu Reef",3.98859,72.7755,"North Ari Atoll","Laccadive Sea",Maldives
70030,"Fesdu Wreck",3.99921,72.7832,"North Ari Atoll","Laccadive Sea",Maldives
70031,"Shaffs Manta Magic",4.00683,72.8081,"North Ari Atoll","Laccadive Sea",Maldives
70041,"Hulhumale' Beyru",4.2408,73.5587,"Male Atoll","Indian Ocean",Maldives
70756,"Reethi House Reef",5.25532,73.1651,"Fonimagoodhoo Island, Baa Atoll","Fonimagoodhoo Island, Baa Atoll",Maldives
70792,,0,0,"Felidhoo Atoll","Indian Ocean",Maldives
71294,Jallahoni,2.6965,72.8628,"Dhaalu Atoll"," 3° 51.495', 72° 54.754'",Maldives
71295,"Point Thila",2.6965,72.8628,"Dhaalu Atoll"," 3° 51.495', 72° 54.754'",Maldives
71296,"Valla Thila",2.6965,72.8628,"Dhaalu Atoll"," 3° 51.495', 72° 54.754'",Maldives
71297,"Valla Honi",2.6965,72.8628,"Dhaalu Atoll"," 3° 51.495', 72° 54.754'",Maldives
71333,"Alimathaa Jetty",3.59074,73.498,"Vaavu Atoll","Laccadive Sea",Maldives
71565,"Bodu Ashey",4.261,72.9782,"Kuramathi (Rasdhoo Atoll)","Indian Ocean",Maldives
71566,Rashdoo,4.25932,72.9822,"Rashdoo Atoll","Indian Ocean",Maldives
71567,"3 Pounds",4.25932,72.9822,"Rashdoo Atoll","Indian Ocean",Maldives
71916,"Fish Tank",4.21435,73.4819,"Male Atoll","Laccadive Sea",Maldives
74309,"Kuredu House Reef",5.54597,73.4681,"Kuredu, Lhaviyani Atoll","Indian Ocean",Maldives
74859,"Vella Caves",4.12554,73.4428,"South Male Atoll","Indian Ocean",Maldives
74860,"Embudo Express",4.08856,73.5347,"South Male Atoll","Laccadive Sea",Maldives
75472,"Matha Kandu",3.64834,73.5052,"Felidhoo Atoll","Laccadive Sea",Maldives
75477,"Kudhimaa Wreck",3.5925,72.8809,"South Ari Atoll","Indian Ocean",Maldives
75482,Holiday,3.46459,72.8246,"South Ari Atoll","Laccadive Sea",Maldives
75484,"Rehi Thila",3.67481,72.7714,"South Ari Atoll","Laccadive Sea",Maldives
75565,"Kandol Manta Point",4.01059,72.8933,"North Ari Atoll","Laccadive Sea",Maldives
75566,"Banana Reef",4.24024,73.5331,"North Male Atoll","Indian Ocean",Maldives
77672,"Chapati Tilas",2.78541,73.4273,"Medhufushi Meemu Atoll","Indian Ocean",Maldives
77673,"Medhufushi Tilas",2.78541,73.4273,"Medhufushi Meemu Atoll","Indian Ocean",Maldives
77674,"Chapati Tilas",2.93306,73.5755,"Medhufushi Meemu Atoll",Meppel,Maldives
77675,"Medhufushi Tilas",2.88982,73.5689,"Medhufushi Meemu Atoll","Meemu Atoll",Maldives
77676,Picasso,2.90457,73.5262,"Medhufushi Meemu Atoll","Meemu Atoll",Maldives
77900,"Iruveli House Reef",6.99903,72.9437,"Manafaru atoll","Indian Ocean",Maldives
77904,"Gambas Corner",7.04186,72.9773,"Gaamathikulhughoo atoll in haa alifu atol","Indian Ocean",Maldives
77906,"Mulhadhoo Beru",7.01944,73.0005,"Mulhadhoo atoll in Haa Alifu atoll","Indian Ocean",Maldives
77907,"Gallandhoo Faru",6.94722,72.985,"Gallandhoo atoll in Haa Alifu  atoll","Indian Ocean",Maldives
77909,"Mulhadhoo Faru",7.0092,72.9939,"Mulhadhoo atoll in Haa Alifu atoll","Indian Ocean",Maldives
77910,Nasfaru,6.96359,72.9352,"Ihavandhoo atoll in Haa Alifu atoll","Indian Ocean",Maldives
77934,"Gallandhoo Faru",6.94722,72.985,"Gallandhoo atoll in Haa Alifu  atoll","Indian Ocean",Maldives
79921,"Safari Island Lagoon",3.95827,72.9147,"North Ari Atoll","Laccadive Sea",Maldives
80718,"Lan Kan Reef",4.21653,73.5341,"Male Atoll","Male Atoll",Maldives
80719,"Nassimo Thila",4.1716,73.322,"Male Atoll","Male Atoll",Maldives
80720,"Sun Light Thila",4.22556,73.5205,"Male Atoll","Male Atoll",Maldives
80721,"Kuda Thila",4.30616,73.5378,"Süd Male Atoll","Süd Male Atoll",Maldives
80722,"Miyaru Faru",3.98585,73.5163,"Süd Male Atoll","Süd Male Atoll",Maldives
80723,"Kandhooma Thila",4.02677,73.5373,"Süd Male Atoll","Süd Male Atoll",Maldives
80724,"Alimata Faru",3.59083,73.4981,"Felidhe Atoll","Felidhe Atoll",Maldives
80725,"Miyaru Kandu",3.59236,73.5029,"Felidhe Atoll","Felidhe Atoll",Maldives
80726,"Golden Wall",3.44296,73.6019,"Felidhe Atoll","Felidhe Atoll",Maldives
80727,"Fotteyo Kandu",3.48781,73.6973,"Felidhe Atoll","Felidhe Atoll",Maldives
80728,"Fotteyo Kandu",3.48781,73.6973,"Felidhe Atoll","Felidhe Atoll",Maldives
80729,"Miyaru Kandu",3.59236,73.5029,"Felidhe Atoll","Felidhe Atoll",Maldives
80730,"Faru Kan",3.68072,73.4536,"Felidhe Atoll","Felidhe Atoll",Maldives
80731,"Faru Kan",3.68072,73.4536,"Felidhe Atoll","Felidhe Atoll",Maldives
80732,"Kunavashi Kandu",3.62795,73.3715,"Felidhe Atoll","Felidhe Atoll",Maldives
80733,"Broken Rock",3.55625,72.936,"Süd Ari Atoll","Süd Ari Atoll",Maldives
80734,"Kudarah Tila",3.53469,72.9274,"Süd Ari Atoll","Süd Ari Atoll",Maldives
80735,"Mv Kudhi Maa",3.59572,72.8843,"Süd Ari Atoll","Süd Ari Atoll",Maldives
80736,"Rahdhiga Thila",3.72949,72.759,"Süd Ari Atoll","Süd Ari Atoll",Maldives
80737,Panttone,3.80585,72.7136,"Süd Ari Atoll","Süd Ari Atoll",Maldives
80738,"Dhega Thila",3.84467,72.7501,"Süd Ari Atoll","Süd Ari Atoll",Maldives
80739,"Thudu Fushi Thila",3.80807,72.7155,"Süd Ari Atoll","Süd Ari Atoll",Maldives
80740,"Himandhoo Thila",3.91528,72.7141,"Süd Ari Atoll","Süd Ari Atoll",Maldives
80741,"Merofen Fushi",3.94496,72.881,"Süd Ari Atoll","Süd Ari Atoll",Maldives
80742,Fishhead,3.90673,72.9203,"Süd Ari Atoll","Süd Ari Atoll",Maldives
80743,"Maledive Victory",4.17685,73.5261,"Male Atoll","Male Atoll",Maldives
81218,"Kuredu House Reef",0,0,"Lhaviyani Atoll","Lhaviyani Atoll",Maldives
81219,Shipyard,0,0,"Lhaviyani Atoll","Lhaviyani Atoll",Maldives
81220,"Vavvaru Outreef",0,0,"Lhaviyani Atoll","Lhaviyani Atoll",Maldives
81221,"Dhigu Thila",0,0,"Baa Atoll","Baa Atoll",Maldives
81222,"Dhigali Tila",0,0,"Baa Atoll","Baa Atoll",Maldives
81223,Fares,0,0,"Baa Atoll","Baa Atoll",Maldives
81224,"Fen Fushi Giri",0,0,"Raa Atoll","Raa Atoll",Maldives
81225,"Fen Fushi Giri",0,0,"Raa Atoll","Raa Atoll",Maldives
81226,"Reethi Thila",0,0,"Raa Atoll","Raa Atoll",Maldives
81227,"Orimas Thila",0,0,"Noonu Atoll","Noonu Atoll",Maldives
81228,"Dha Tha Faru",0,0,"Noonu Atoll","Noonu Atoll",Maldives
81229,"Dha Tha Faru",0,0,"Noonu Atoll","Noonu Atoll",Maldives
81230,"Fushifarm Kandu",0,0,"Lhaviyani Atoll","Lhaviyani Atoll",Maldives
81231,"Zafari Reef",0,0,"Lhaviyani Atoll","Lhaviyani Atoll",Maldives
81232,"Kuredo Caves",0,0,"Lhaviyani Atoll","Lhaviyani Atoll",Maldives
84497,,4.17528,73.5089,"Male Atoll","Laccadive Sea",Maldives
84498,,4.17528,73.5089,"South Male Atoll","Laccadive Sea",Maldives
84499,"Laguna Faru",4.17528,73.5089,"South Male Atoll","Laccadive Sea",Maldives
84500,"Vadhoo Faru",4.17528,73.5089,"South Male Atoll","Laccadive Sea",Maldives
84501,Kuoahaa,4.17528,73.5089,"South Male Atoll","Laccadive Sea",Maldives
84502,"Voshimas Thila",4.17528,73.5089,"Male Atoll","Laccadive Sea",Maldives
84503,"Finga Point",4.17528,73.5089,"Male Atoll","Laccadive Sea",Maldives
84504,"Laguna Cave",4.17528,73.5089,"South Male Atoll","Laccadive Sea",Maldives
84505,"Buduhiti Thila",4.2072,73.414,"South Male Atoll","Laccadive Sea",Maldives
84506,Kuoahaa,4.11617,73.4317,"South Male Atoll","Indian Ocean",Maldives
84507,"Vadhoo Faru",4.12867,73.4551,"South Male Atoll","Indian Ocean",Maldives
84508,"Laguna Faru",4.12994,73.459,"South Male Atoll","Indian Ocean",Maldives
85265,"Nassimo Thila",4.2883,73.533," Atoll Male Nord","Océan indien",Maldives
85266,"Hp Reef Himmafushi",4.31333,73.5791," Atoll Male Nord","Océan indien",Maldives
85267,"Rasgari Corner Manta Point",4.43687,73.363," Atoll Male Nord","Océan indien",Maldives
85268,"Rasdhoo Madivaru",4.26179,72.9974,"Rasdhoo Atoll","Océan indien",Maldives
85295,"Bathala Maaga Kan Thila",4.07909,72.9541,"Ari Atoll Nord","Océan indien",Maldives
85296,"Zaza Thila",4.13722,72.8394,"Ari Atoll Nord","Océan indien",Maldives
85297,"Maaya Thila",4.09117,72.862,"Ari Atoll Nord","Océan indien",Maldives
85298,"Dhonkalo Thila",3.96085,72.714,"Ari Atoll Nord","Océan indien",Maldives
85299,"Rangali Madivaru",3.58829,72.7226,"Ari Atoll sud","Océan indien",Maldives
85300,"Maamigili Beyru",3.46545,72.8337,"Ari Atoll sud","Océan indien",Maldives
85302,"Maamigili Corner",3.46973,72.8462,"Ari Atoll sud","Océan indien",Maldives
85303,"Ranveli Thila",3.61926,72.9606,"Ari Atoll sud","Océan indien",Maldives
85304,"Vilamendhoo Thila",3.63407,72.9659,"Ari Atoll sud","Océan indien",Maldives
85305,"Guraidhoo Corner",3.88583,73.4692," Atoll Male Sud","Océan indien",Maldives
85306,"Kuda Giri",3.89675,73.4598," Atoll Male Sud","Océan indien",Maldives
86526,"Rasdhoo, Maldives",0,0,"Rasdhoo Atoll","Indian Ocean",Maldives
86527,"Kan Thila, Maldives",0,0,"North Ari Atoll","Indian Ocean",Maldives
86528,"Hafsha Tila, Maldives",0,0,"North Ari Atoll","Indian Ocean",Maldives
86529,"Fesdhoo Wreck, Maldives",0,0,"North Ari Atoll","Indian Ocean",Maldives
86530,"Fish Head, Maldives",0,0,"North Ari Atoll","Indian Ocean",Maldives
86531,"Degha Thila, Maldives",0,0,"South Ari Atoll","Indian Ocean",Maldives
86532,"Panettone, Maldives",0,0,"South Ari Atoll","Indian Ocean",Maldives
86533,"Rahahiga Thila, Maldives",0,0,"South Ari Atoll","Indian Ocean",Maldives
86534,"Broken Rock, Maldives",0,0,"South Ari Atoll","Indian Ocean",Maldives
86943,Madivaru,4.25826,72.9921,"Kuramathi (Rasdhoo Atoll)","Laccadive Sea",Maldives
86946,"Bodu Tin Thila",4.07033,72.9462,"Ari Atoll","Laccadive Sea",Maldives
86947,"Kari Beiru Thila",4.10201,72.9736,"Ari Atoll","Laccadive Sea",Maldives
86948,"Kandulodhoo Thila",4.01913,72.8827,"Ari Atoll","Laccadive Sea",Maldives
90121,"Eihaa Rock",5.25625,73.1637,"Fonimagoodhoo Island, Baa Atoll","Indian Ocean",Maldives
90122,"Thilandhoo West",5.25625,73.1637,"Fonimagoodhoo Island, Baa Atoll","Indian Ocean",Maldives
90123,"Dhigali Thila",5.25625,73.1637,"Fonimagoodhoo Island, Baa Atoll","Indian Ocean",Maldives
90124,"Kahambu Bayru",5.25625,73.1637,"Fonimagoodhoo Island, Baa Atoll","Indian Ocean",Maldives
90125,"Dhe Gaa Thila",5.25625,73.1637,"Fonimagoodhoo Island, Baa Atoll","Indian Ocean",Maldives
90126,Nelivary,5.25625,73.1637,"Fonimagoodhoo Island, Baa Atoll","Indian Ocean",Maldives
90127,"Khaandoo Thila",5.25625,73.1637,"Fonimagoodhoo Island, Baa Atoll","Indian Ocean",Maldives
90128,"Blue Hole",5.25625,73.1637,"Fonimagoodhoo Island, Baa Atoll","Indian Ocean",Maldives
90129,"Hattas Giri",5.25625,73.1637,"Fonimagoodhoo Island, Baa Atoll","Indian Ocean",Maldives
90318,"Kuda Kandu Corner",5.41187,73.4669,"South Male Atoll","Laccadive Sea",Maldives
93112,"Paradise Reef",4.28838,73.5508,"Male Atoll","Indian Ocean",Maldives
93113,Kanduohgiri,4.25648,73.5408,"Male Atoll","Indian Ocean",Maldives
93118,"Potato Thila",4.25911,73.5332,"North Male Atoll","Indian Ocean",Maldives
93119,"Faru Beyru",4.23412,73.5543,"North Male Atoll","Indian Ocean",Maldives
93202,"Bodu Gaa",4.266,73.5337,"Male Atoll","Indian Ocean",Maldives
93233,"Faru Beyru",4.23412,73.5543,"North Male Atoll","Indian Ocean",Maldives
93254,"Digurah Arches",3.54164,72.9326,"South Ari Atoll","Laccadive Sea",Maldives
93452,"Lankan Beyru",4.28266,73.5604,"North Male Atoll","North Male Atoll",Maldives
93737,"Nassimo Thila",4.28754,73.5368,"Male Atoll","Indian Ocean",Maldives
93756,"Sun Light Thila",4.30111,73.5332,"North Male Atoll","North Male Atoll",Maldives
94085,"Himmafushi Beyru",4.30098,73.5753,"Male Atoll","Indian Ocean",Maldives
94392,"Hudhuveli Beyru",4.29044,73.5635,"North Male Atoll","Indian Ocean",Maldives
94727,Kanduoiygiri,4.25648,73.5408,"North Male Atoll","Indian Ocean",Maldives
94871,"Maagiri Reef",4.26382,73.5317,"Male Atoll","Indian Ocean",Maldives
95181,"Hp Reef",4.31451,73.5795,"Male Atoll","Indian Ocean",Maldives
95257,"Vilingili Beach",4.17527,73.4829,"Male Atoll","Indian Ocean",Maldives
95416,"Kurumba Faru",0,0,"North Male Atoll","Indian Ocean",Maldives
95417,"Lankan Reef, Paradise Is.",0,0,"North Male Atoll","Indian Ocean",Maldives
95418,"Kuda Giri Wreck",0,0,"South Male Atoll","Indian Ocean",Maldives
95419,"Meadhu Faru",0,0,"South Male Atoll","Indian Ocean",Maldives
95420,"Guraidhoo Rock",0,0,"South Male Atoll","Indian Ocean",Maldives
95421,"Miyalu Kandu",0,0,"Vaavu Atoll","Indian Ocean",Maldives
95422,"Alimath Jetty",0,0,"Vaavu Atoll","Indian Ocean",Maldives
95423,"Machafushi Wreck",0,0,"South Ari Atoll","Indian Ocean",Maldives
95424,"Bodufinolhu Thila",0,0,"South Ari Atoll","Indian Ocean",Maldives
95425,"Holiday Thila",0,0,"South Ari Atoll","Indian Ocean",Maldives
95426,"Lily Rock",0,0,"South Ari Atoll","Indian Ocean",Maldives
95427,"Digga Tila",0,0,"South Ari Atoll","Indian Ocean",Maldives
95428,"Himendhoo Thila",0,0,"North Ari Atoll","Indian Ocean",Maldives
95429,"Moofushi Kandu",0,0,"South Ari Atoll","Indian Ocean",Maldives
95430,"Fesdhoo Wreck",0,0,"North Ari Atoll","Indian Ocean",Maldives
95431,"Fesdhoo Lagoon",0,0,"North Ari Atoll","Indian Ocean",Maldives
95432,"Fish Head",0,0,"North Ari Atoll","Indian Ocean",Maldives
96096,"Feydhoo Wall",4.21556,73.487,"Male Atoll","Indian Ocean",Maldives
96135,"Hudhuveli Beyru",4.2904,73.565,"North Male Atoll","Indian Ocean",Maldives
96156,"Bandos Rock",4.27229,73.4935,"North Male Atoll","Indian Ocean",Maldives
96199,"Embudu Coral Garden",4.08276,73.511,"Süd Male Atoll","Süd Male Atoll",Maldives
96200,"Vaadhoo Channel",4.12574,73.459,"Süd Male Atoll","Süd Male Atoll",Maldives
96201,"Ghuli Outside",4.00948,73.5325,"Süd Male Atoll","Süd Male Atoll",Maldives
96202,"Embudu Hausriff",4.08436,73.514,"Süd Male Atoll","Süd Male Atoll",Maldives
96203,"Vaadhoo Caves",4.12831,73.456,"Süd Male Atoll","Süd Male Atoll",Maldives
96204,"Embudu Channel",4.08821,73.5311,"Süd Male Atoll","Süd Male Atoll",Maldives
96205,"Dragon`S Mouth",4.17146,73.4748,"Süd Male Atoll","Süd Male Atoll",Maldives
96206,"Embudu Hausriff",4.08436,73.514,"Süd Male Atoll","Süd Male Atoll",Maldives
96207,"The Wall",4.12643,73.5094,"Süd Male Atoll","Süd Male Atoll",Maldives
96208,"Ghuli Channel",3.99047,73.5148,"Süd Male Atoll","Süd Male Atoll",Maldives
96209,"Lankan Manta Point",4.27974,73.5571,"Nord Male Atoll","Nord Male Atoll",Maldives
96210,"Lankan Manta Point",4.27974,73.5571,"Nord Male Atoll","Nord Male Atoll",Maldives
96211,"Embudu Channel",4.08821,73.5311,"Süd Male Atoll","Süd Male Atoll",Maldives
96212,"Embudu Hausriff",4.08436,73.514,"Süd Male Atoll","Süd Male Atoll",Maldives
96213,"Lion`S Head",4.18224,73.4143,"Süd Male Atoll","Süd Male Atoll",Maldives
96214,"Lankan Manta Point",4.27974,73.5571,"Nord Male Atoll","Nord Male Atoll",Maldives
96215,"Lankan Manta Point",4.27974,73.5571,"Nord Male Atoll","Nord Male Atoll",Maldives
96216,"Embudu Coral Garden",4.08276,73.511,"Süd Male Atoll","Süd Male Atoll",Maldives
96217,"Potato Reef",3.97198,73.491,"Süd Male Atoll","Süd Male Atoll",Maldives
96218,"Old Shark`S Point",3.95759,73.492,"Nord Male Atoll","Nord Male Atoll",Maldives
96219,"Embubu Corner",4.12352,73.5236,"Süd Male Atoll","Süd Male Atoll",Maldives
96220,"Embudu Hausriff",4.08436,73.514,"Süd Male Atoll","Süd Male Atoll",Maldives
96221,"Dragon`S Mouth",4.17146,73.4748,"Süd Male Atoll","Süd Male Atoll",Maldives
96222,"Vaadhoo Caves",4.12831,73.456,"Süd Male Atoll","Süd Male Atoll",Maldives
96460,"Furana Outside",4.24901,73.5495,"Nord Male Atoll","Nord Male Atoll",Maldives
96461,"Lankan Manta Point",4.27974,73.5571,"Nord Male Atoll","Nord Male Atoll",Maldives
96462,"Lankan Manta Point",4.27974,73.5571,"Nord Male Atoll","Nord Male Atoll",Maldives
96463,"Hp Reef",4.31337,73.5786,"Nord Male Atoll","Nord Male Atoll",Maldives
96464,"Nassimo Thila",4.28813,73.5332,"Nord Male Atoll","Nord Male Atoll",Maldives
96465,"Woshimas Thila",4.48008,73.371,"Nord Male Atoll","Nord Male Atoll",Maldives
96466,"Boduhithi Thila",4.45236,73.3657,"Nord Male Atoll","Nord Male Atoll",Maldives
96467,Rasfari,4.38972,73.3459,"Nord Male Atoll","Nord Male Atoll",Maldives
96468,"Rasdhoo Madivaru",4.26459,72.9994,"Rasdhoo Atoll","Rasdhoo Atoll",Maldives
96469,"Rasdhoo Madivaru",4.26459,72.9994,"Rasdhoo Atoll","Rasdhoo Atoll",Maldives
96470,"Rasdhoo Madivaru",4.26459,72.9994,"Rasdhoo Atoll","Rasdhoo Atoll",Maldives
96471,"Hafsa Thila",4.12882,72.8381,"Ari Atoll","Ari Atoll",Maldives
96472,"Bathalaa Thila",4.06992,72.9491,"Ari Atoll","Ari Atoll",Maldives
96473,"Bathalaa Maaga Kanthila",4.0576,72.9563,"Ari Atoll","Ari Atoll",Maldives
96474,"Maaya Thila",4.09089,72.8619,"Ari Atoll","Ari Atoll",Maldives
96475,"Maaya Thila",4.09089,72.8619,"Ari Atoll","Ari Atoll",Maldives
96476,"Fesdu Wreck",3.99955,72.7849,"Ari Atoll","Ari Atoll",Maldives
96477,"Fish Head",3.93591,72.9128,"Ari Atoll","Ari Atoll",Maldives
96478,"Omadhoo Thila",3.79518,72.9654,"Ari Atoll","Ari Atoll",Maldives
96479,"Pretty Rock",3.56992,72.94,"Ari Atoll","Ari Atoll",Maldives
96480,"Broken Rock",3.56671,72.9436,"Ari Atoll","Ari Atoll",Maldives
96481,"Maamigili Beyru",3.46887,72.8435,"Ari Atoll","Ari Atoll",Maldives
96482,"Maamigili Beyru",3.46887,72.8435,"Ari Atoll","Ari Atoll",Maldives
96483,"Bodufinolhu Thila",3.48738,72.7705,"Ari Atoll","Ari Atoll",Maldives
96484,"Kandooma Thila",3.90878,73.4745,"Süd Male Atoll","Süd Male Atoll",Maldives
96485,"Medhu Faru",3.89365,73.4701,"Süd Male Atoll","Süd Male Atoll",Maldives
96486,"Villivaru Giri",3.91392,73.4581,"Süd Male Atoll","Süd Male Atoll",Maldives
96487,"Kandooma Thila",3.90878,73.4745,"Süd Male Atoll","Süd Male Atoll",Maldives
96488,"Cocoa Corner",3.90915,73.4812,"Süd Male Atoll","Süd Male Atoll",Maldives
96489,"Villivaru Giri",3.91392,73.4581,"Süd Male Atoll","Süd Male Atoll",Maldives
96490,"Kuda Giri",3.97191,73.4912,"Süd Male Atoll","Süd Male Atoll",Maldives
96491,"Dhigu Beyru",3.98086,73.5104,"Süd Male Atoll","Süd Male Atoll",Maldives
96492,"Miyaru Faru",3.9894,73.5188,"Süd Male Atoll","Süd Male Atoll",Maldives
96493,"Embudhoo Thila Ii",4.08876,73.5338,"Süd Male Atoll","Süd Male Atoll",Maldives
96494,"Velassaru Caves",4.12883,73.4575,"Süd Male Atoll","Süd Male Atoll",Maldives
96495,"Embudhoo Express",4.08422,73.5285,"Süd Male Atoll","Süd Male Atoll",Maldives
96496,"Maledive Victory",4.17792,73.5267,"Nord Male Atoll","Nord Male Atoll",Maldives
96504,"Lankan Outside",4.29369,73.5674,"Nord Male Atoll","Nord Male Atoll",Maldives
96505,"Guraidhoo Corner",3.88939,73.4687,"Süd Male Atoll","Süd Male Atoll",Maldives
96506,"Omadhoo Thila",3.79518,72.9654,"Ari Atoll","Ari Atoll",Maldives
96507,"Kahabu Thila",3.61395,72.9577,"Ari Atoll","Ari Atoll",Maldives
96508,"Kudarah Thila",3.56902,72.9155,"Ari Atoll","Ari Atoll",Maldives
96509,"5 Rocks",3.56921,72.9407,"Ari Atoll","Ari Atoll",Maldives
96510,"Maamigili Beyru",3.46887,72.8435,"Ari Atoll","Ari Atoll",Maldives
96511,"Madivaru Rangali Manta Point",3.58658,72.7171,"Ari Atoll","Ari Atoll",Maldives
96512,"Rahdigga Thila",3.75335,72.7361,"Ari Atoll","Ari Atoll",Maldives
96513,"Gaaviya Thila",0,0,"Ari Atoll","Ari Atoll",Maldives
96514,"Kalahadhi Huraa (Panettone)",3.79677,72.7123,"Ari Atoll","Ari Atoll",Maldives
96515,"Fish Head",3.93591,72.9128,"Ari Atoll","Ari Atoll",Maldives
96516,"Maaya Thila",4.09089,72.8619,"Ari Atoll","Ari Atoll",Maldives
96517,"Maaya Thila",4.09089,72.8619,"Ari Atoll","Ari Atoll",Maldives
96518,"Hafsa Thila",4.12882,72.8381,"Ari Atoll","Ari Atoll",Maldives
96519,"Rasdhoo Madivaru",4.26459,72.9994,"Rasdhoo Atoll","Rasdhoo Atoll",Maldives
96520,"Rasdhoo Madivaru",4.26459,72.9994,"Rasdhoo Atoll","Rasdhoo Atoll",Maldives
96627,"Back Faru",4.23964,73.5546,"Nord Male Atoll","Nord Male Atoll",Maldives
96628,"Lankan Manta Point",4.27974,73.5571,"Nord Male Atoll","Nord Male Atoll",Maldives
96629,"Kuda Giri",3.97191,73.4912,"Süd Male Atoll","Süd Male Atoll",Maldives
96630,"Medhu Faru",3.89365,73.4701,"Süd Male Atoll","Süd Male Atoll",Maldives
96631,"Thinfushi Etere Thila",3.56362,72.9393,"Ari Atoll","Ari Atoll",Maldives
96632,"Dhigura Faru",0,0,"Ari Atoll","Ari Atoll",Maldives
96633,"Kudarah Thila",3.56902,72.9155,"Ari Atoll","Ari Atoll",Maldives
96634,"Machafushi Wreck",0,0,"Ari Atoll","Ari Atoll",Maldives
96635,"Rahdigga Thila",3.75335,72.7361,"Ari Atoll","Ari Atoll",Maldives
96636,"Rahdigga Thila",3.75335,72.7361,"Ari Atoll","Ari Atoll",Maldives
96637,"Dega Thila",3.83351,72.7459,"Ari Atoll","Ari Atoll",Maldives
96638,"Fish Head",3.93591,72.9128,"Ari Atoll","Ari Atoll",Maldives
96639,"Kandholhudhoo Thila",0,0,"Ari Atoll","Ari Atoll",Maldives
96640,"Hafsa Thila",4.12882,72.8381,"Ari Atoll","Ari Atoll",Maldives
96641,"Maaya Thila",4.09089,72.8619,"Ari Atoll","Ari Atoll",Maldives
96642,"Maaya Thila",4.09089,72.8619,"Ari Atoll","Ari Atoll",Maldives
96676,"Hanimadhoo Faru",0,0,"Süd Thiladhunmatee Atoll","Süd Thiladhunmatee Atoll",Maldives
96677,"Amba Thila",0,0,"Süd Thiladhunmatee Atoll","Süd Thiladhunmatee Atoll",Maldives
96678,"Baarah Thila",0,0,"Süd Thiladhunmatee Atoll","Süd Thiladhunmatee Atoll",Maldives
96679,"Theefaridhoo Faru",0,0,"Süd Thiladhunmatee Atoll","Süd Thiladhunmatee Atoll",Maldives
96680,"Hirimaradhoo Thila",0,0,"Süd Thiladhunmatee Atoll","Süd Thiladhunmatee Atoll",Maldives
96681,"Theefaridhoo Thila",0,0,"Süd Thiladhunmatee Atoll","Süd Thiladhunmatee Atoll",Maldives
96682,"Enmadhi Thila",0,0,"Süd Thiladhunmatee Atoll","Süd Thiladhunmatee Atoll",Maldives
96683,"Kulhu Thila",0,0,"Süd Thiladhunmatee Atoll","Süd Thiladhunmatee Atoll",Maldives
96684,"Enmadhi Thila",0,0,"Süd Thiladhunmatee Atoll","Süd Thiladhunmatee Atoll",Maldives
96685,"Maavaidhoo Thila",0,0,"Süd Thiladhunmatee Atoll","Süd Thiladhunmatee Atoll",Maldives
96686,"Nel Reef",0,0,"Süd Thiladhunmatee Atoll","Süd Thiladhunmatee Atoll",Maldives
96687,"Tine Thila",0,0,"Süd Thiladhunmatee Atoll","Süd Thiladhunmatee Atoll",Maldives
96688,"Anemon Thila",0,0,"Süd Thiladhunmatee Atoll","Süd Thiladhunmatee Atoll",Maldives
96689,"Nellaidhoo Thila",0,0,"Süd Thiladhunmatee Atoll","Süd Thiladhunmatee Atoll",Maldives
96690,"Hirinaidhoo Thila",0,0,"Süd Thiladhunmatee Atoll","Süd Thiladhunmatee Atoll",Maldives
96691,"Marandhoo Little Blue",0,0,"Süd Thiladhunmatee Atoll","Süd Thiladhunmatee Atoll",Maldives
96692,"Mulidhoo Faru",0,0,"Süd Thiladhunmatee Atoll","Süd Thiladhunmatee Atoll",Maldives
96693,"Alidhoo Caves",0,0,"Süd Thiladhunmatee Atoll","Süd Thiladhunmatee Atoll",Maldives
97104,"Woshimas Thila",4.48008,73.371,"Nord Male Atoll","Laccadive Sea",Maldives
97113,"Villivaru Giri",3.90356,73.4445,"Süd Male Atoll","Laccadive Sea",Maldives
97114,"Velassaru Caves",4.12626,73.4376,"South Male Atoll","Laccadive Sea",Maldives
97115,"Woshimas Thila",4.48008,73.371,"North Male Atoll","Laccadive Sea",Maldives
97116,"Villivaru Giri",3.90356,73.4445,"South Male Atoll","Laccadive Sea",Maldives
97117,"Vaadhoo Channel",4.12574,73.459,"South Male Atoll","Laccadive Sea",Maldives
97118,"Vaadhoo Caves",4.12831,73.456,"South Male Atoll","Laccadive Sea",Maldives
97157,"Karibeyru Thila",4.08975,72.9471,"Ari Atoll","Océan indien",Maldives
97158,"Maaya Thila",4.09117,72.862,"Ari Atoll","Océan indien",Maldives
97318,"Faru Corner",4.24332,73.5502,"North Male Atoll","North Male Atoll",Maldives
97322,Mushimasmigili,3.93622,72.913,"Ari Atoll","Océan indien",Maldives
97323,Fesdhou,3.99943,72.786,"Ari Atoll","Océan indien",Maldives
97324,"Maalhoss Thila",3.99464,72.7165,"Ari Atoll","Océan indien",Maldives
97356,"Maadi Beyru",3.83783,72.7457,"Ari Atoll","Océan indien",Maldives
97357,"Kalhahandihuraa Panettone",3.79739,72.7121,"Ari Atoll","Océan indien",Maldives
97358,"Rangali Mdivaru",3.58829,72.7226,"Ari Atoll","Océan indien",Maldives
97359,"Rangali Madivaru",3.58829,72.7226,"Ari Atoll","Océan indien",Maldives
97360,"Kudadhoo Beuru",3.47607,72.8708,"Ari Atoll","Océan indien",Maldives
97361,"Dangheti Corner",3.61129,72.9598,"Ari Atoll","Océan indien",Maldives
97363,"Gulhi Kandu",3.98524,73.5091,"Malé  Sud Atoll","Océan indien",Maldives
97364,"Kuda Giri",3.97642,73.4941,"Malé  Sud Atoll","Océan indien",Maldives
97383,"Coral Garden",4.26176,73.5315,"North Male Atoll","Indian Ocean",Maldives
97415,"Amba Thila",6.75667,73.1583,"South Thiladhunmatee Atoll","Laccadive Sea",Maldives
97416,"Hanimadhoo Faru",6.75667,73.1583,"South Thiladhunmatee Atoll","Laccadive Sea",Maldives
97417,"Amba Thila",6.76613,73.0456,"South Thiladhunmatee Atoll","Laccadive Sea",Maldives
97500,"Baarah Thila",6.75258,73.0718,"South Thiladhunmatee Atoll","Laccadive Sea",Maldives
97501,"Theefaridhoo Faru",6.74917,73.0313,"South Thiladhunmatee Atoll","Laccadive Sea",Maldives
97502,"Hirimaradhoo Thila",6.71303,73.0368,"South Thiladhunmatee Atoll","Laccadive Sea",Maldives
97503,"Theefaridhoo Thila",6.76451,73.0151,"South Thiladhunmatee Atoll","Laccadive Sea",Maldives
97504,"Enmadhi Thila",6.68916,73.0196,"South Thiladhunmatee Atoll","Laccadive Sea",Maldives
97505,"Kulhu Thila",6.63255,73.0443,"South Thiladhunmatee Atoll","Laccadive Sea",Maldives
97506,"Maavaidhoo Thila",6.53023,73.0416,"South Thiladhunmatee Atoll","Laccadive Sea",Maldives
97507,"Nel Reef",6.44632,73.0484,"South Thiladhunmatee Atoll","Laccadive Sea",Maldives
97508,"Tine Thila",6.43574,73.0052,"South Thiladhunmatee Atoll","Laccadive Sea",Maldives
97509,"Anemon Thila",6.63801,72.9355,"South Thiladhunmatee Atoll","Laccadive Sea",Maldives
97510,"Nellaidhoo Thila",6.71166,72.9564,"South Thiladhunmatee Atoll","Laccadive Sea",Maldives
97511,"Hirinaidhoo Thila",6.69871,72.9612,"South Thiladhunmatee Atoll","Laccadive Sea",Maldives
97512,"Marandhoo Little Blue",6.85758,72.9897,"North Thiladhunmatee Atoll","Laccadive Sea",Maldives
97515,"Mulidhoo Faru",6.82963,73.0175,"North Thiladhunmatee Atoll","Laccadive Sea",Maldives
97516,"Alidhoo Caves",6.85144,73.1528,"North Thiladhunmatee Atoll","Laccadive Sea",Maldives
97517,"Thinfushi Etere Thila",3.56362,72.9393,"Ari Atoll","Laccadive Sea",Maldives
97519,"The Wall",4.12643,73.5094,"South Male Atoll","Laccadive Sea",Maldives
97574,"Bandos House Reef",4.26911,73.4887,"Male Atoll","Indian Ocean",Maldives
98549,"Furana Thila",4.25568,73.5472,"Male Atoll","Indian Ocean",Maldives
98550,"Komandoo House Reef",5.49367,73.4243,"Lhaviyani Atoll","Laccadive Sea",Maldives
98551,"Felivaru (Fish Factory) Out Reef",5.40397,73.6445,"Lhaviyani Atoll","Océan indien",Maldives
98731,"Ocean Side",4.29716,73.5719,"North Male Atoll","Indian Ocean",Maldives
98971,"Lankan Caves",4.27879,73.5517,"Male Atoll","Indian Ocean",Maldives
99214,Rasfari,4.38972,73.3459,"North Male Atoll","Laccadive Sea",Maldives
99215,"Rasdhoo Madivaru",4.26459,72.9994,"Rasdhoo Atoll","Laccadive Sea",Maldives
99223,"Rahdigga Thila",3.75335,72.7361,"Ari Atoll","Laccadive Sea",Maldives
99227,"Pretty Rock",3.56992,72.94,"Ari Atoll","Laccadive Sea",Maldives
99228,"Potato Reef",3.97198,73.491,"South Male Atoll","Laccadive Sea",Maldives
99232,"Omadhoo Thila",3.79518,72.9654,"Ari Atoll","Laccadive Sea",Maldives
99233,"Old Shark's Point",3.95759,73.492,"North Male Atoll","Laccadive Sea",Maldives
99239,"Nassimo Thila",4.28813,73.5332,"North Male Atoll","Laccadive Sea",Maldives
99445,"Hammerhead Point",4.261,72.9782,"Kuramathi (Rasdhoo Atoll)","Indian Ocean",Maldives
99529,"Miyaru Faru",3.9894,73.5188,"South Male Atoll","Laccadive Sea",Maldives
99530,"Medhu Faru",3.89365,73.4701,"South Male Atoll","Laccadive Sea",Maldives
99531,"Maledive Victory",4.17792,73.5267,"North Male Atoll","Laccadive Sea",Maldives
99540,"Madivaru Rangali Manta Point",3.58658,72.7171,"Ari Atoll","Laccadive Sea",Maldives
99541,"Machafushi Wreck",3.48326,72.8028,"Ari Atoll","Laccadive Sea",Maldives
99542,"Maaya Thila",4.09089,72.8619,"Ari Atoll","Laccadive Sea",Maldives
99543,"Maamigili Beyru",3.46887,72.8435,"Ari Atoll","Laccadive Sea",Maldives
99545,"Lion`S Head",4.18224,73.4143,"South Male Atoll","Laccadive Sea",Maldives
99562,"Lankan Outside",4.29369,73.5674,"North Male Atoll","Laccadive Sea",Maldives
99563,"Lankan Manta Point",4.27974,73.5571,"North Male Atoll","Laccadive Sea",Maldives
99565,"Kudarah Thila",3.56902,72.9155,"Ari Atoll","Laccadive Sea",Maldives
99566,"Kuda Giri",3.97191,73.4912,"South Male Atoll","Laccadive Sea",Maldives
99575,"Kandooma Thila",3.90878,73.4745,"South Male Atoll","Laccadive Sea",Maldives
99576,"Kandholhudoo Thila",3.98859,72.7755,"North Ari Atoll","Laccadive Sea",Maldives
99577,"Kalahadhi Huraa (Panettone)",3.79677,72.7123,"Ari Atoll","Laccadive Sea",Maldives
99578,"Kahabu Thila",3.61395,72.9577,"Ari Atoll","Laccadive Sea",Maldives
99582,"Kandholhudoo Thila",3.98859,72.7755,"Ari Atoll","Laccadive Sea",Maldives
99583,"Hp Reef",4.31337,73.5786,"North Male Atoll","Laccadive Sea",Maldives
99584,"Hafsa Thila",4.12882,72.8381,"Ari Atoll","Laccadive Sea",Maldives
99586,"Guraidhoo Corner",3.88939,73.4687,"South Male Atoll","Laccadive Sea",Maldives
99683,"Maguhdhuvaa Island",0.277463,73.3569,"Gaafu Dhaalu Atoll","Indian Ocean",Maldives
99691,"Ghuli Outside",4.00948,73.5325,"South Male Atoll","Laccadive Sea",Maldives
99692,"Ghuli Channel",3.99047,73.5148,"South Male Atoll","Laccadive Sea",Maldives
100634,"Lankan Caves",4.2794,73.5515,"North Male Atoll","Indian Ocean",Maldives
100661,"Gaaviya Thila",3.76431,72.7066,"Ari Atoll","Laccadive Sea",Maldives
100662,"Furana Outside",4.24901,73.5495,"North Male Atoll","Laccadive Sea",Maldives
100663,"Fish Head",3.93591,72.9128,"Ari Atoll","Laccadive Sea",Maldives
100664,"Fesdu Wreck",3.99955,72.7849,"Ari Atoll","Laccadive Sea",Maldives
100666,"Embudu House Reef",4.08436,73.514,"South Male Atoll","Laccadive Sea",Maldives
100667,"Embudu Coral Garden",4.08276,73.511,"South Male Atoll","Laccadive Sea",Maldives
100668,"Embudu Channel",4.08821,73.5311,"South Male Atoll","Laccadive Sea",Maldives
100669,"Embudu Thila",4.08876,73.5338,"South Male Atoll","Laccadive Sea",Maldives
100670,"Embudu Express",4.08422,73.5285,"South Male Atoll","Laccadive Sea",Maldives
100671,"Embubu Corner",4.12352,73.5236,"South Male Atoll","Laccadive Sea",Maldives
100770,"Dragon`S Mouth",4.17146,73.4748,"North Male Atoll","Laccadive Sea",Maldives
100771,"Dhigurah Faru",3.52607,72.9295,"Ari Atoll","Laccadive Sea",Maldives
100772,"Dhigu Beyru",3.98086,73.5104,"South Male Atoll","Laccadive Sea",Maldives
100773,"Dega Thila",3.83351,72.7459,"Ari Atoll","Laccadive Sea",Maldives
101023,"Cocoa Corner",3.90915,73.4812,"South Male Atoll","Laccadive Sea",Maldives
101026,"Broken Rock",3.56671,72.9436,"Ari Atoll","Laccadive Sea",Maldives
101027,"Boduhithi Thila",4.45236,73.3657,"North Male Atoll","Laccadive Sea",Maldives
101028,"Bodufinolhu Thila",3.48738,72.7705,"Ari Atoll","Laccadive Sea",Maldives
101034,"Bathalaa Thila",4.06992,72.9491,"Ari Atoll","Laccadive Sea",Maldives
101035,"Bathalaa Maaga Kanthila",4.0576,72.9563,"Ari Atoll","Laccadive Sea",Maldives
101041,"Back Faru",4.23964,73.5546,"North Male Atoll","Laccadive Sea",Maldives
101050,"5 Rocks",3.56921,72.9407,"Ari Atoll","Laccadive Sea",Maldives
101231,"Kurumba Reef",4.22765,73.5177,"North Male Atoll","Indian Ocean",Maldives
102730,"Vavvaru Out Reef",5.41805,73.3545,"Lhaviyani Atoll","Océan indien",Maldives
102731,"Kuredu House Reef",5.55,73.45,"Kuredu, Lhaviyani Atoll","Océan indien",Maldives
103147,"Maldives Victory Wreck",4.1795,73.5257,"Male Atoll","Océan indien",Maldives
103153,"Alimata Faru",3.59083,73.4981,"Felidhe Atoll","Océan indien",Maldives
103154,"East Point",3.45371,73.774,"Felidhoo Atoll","Océan indien",Maldives
103155,Dhangethi,3.61355,72.9639,"Ari Atoll","Océan indien",Maldives
103156,Mandhoo,3.68028,72.6981,"South Ari Atoll","Océan indien",Maldives
103157,"Himandhoo Thila",3.91528,72.7141,"Ari Atoll","Océan indien",Maldives
103158,Halaveli,4.04621,72.9192,"North Ari Atoll","Océan indien",Maldives
103159,Maayafushi,4.07368,72.8876,"Ari Atoll","Océan indien",Maldives
103160,"Rasdhoo Reef (Channel)",4.26044,73.0008,"Rasdhoo Atoll","Océan indien",Maldives
104405,"Feydhoo Faru",4.21544,73.4866,"Male Atoll","Laccadive Sea",Maldives
104406,"Bathalaa Maagaa Kan Thila",4.05895,72.956,"Ari Atoll","Indian Ocean",Maldives
104407,"Bathalaa Thila",4.07012,72.9502,"Ari Atoll","Indian Ocean",Maldives
104432,"Embudu Express",4.08779,73.5348,"Male Atoll","Laccadive Sea",Maldives
104436,"Nassimo Thila",4.27355,73.5393,"Dhonveli Island, North Male Atoll","Laccadive Sea",Maldives
104999,Vaggiri,3.90427,73.4508,"atoll Mahe sud","Laccadive Sea",Maldives
105041,"Bathalaa Maagaa Kan Thila",4.06078,72.9576,"North Ari Atoll","Océan indien",Maldives
105042,"Fesdu Lagoon",3.99027,72.787,"North Ari Atoll","Indian Ocean",Maldives
105044,Panettone,3.8,72.7,"Ari Atoll","Océan indien",Maldives
105046,"Fenfushi Beru",3.4749,72.79,"South Ari Atoll","Océan indien",Maldives
105047,"Maamigili Beru",3.46831,72.8392,"South Ari Atoll","Océan indien",Maldives
105048,"Kudarah Thila",3.56902,72.9155,"Ari Atoll","Océan indien",Maldives
105049,"Kudhimaa Wreck",3.5944,72.8852,"South Ari Atoll","Indian Ocean",Maldives
105063,Kunavashi,3.63581,73.3614,"Felidhe Atoll","Océan indien",Maldives
105064,"Miyaru Kandu",3.59805,73.5019,"Felidhoo Atoll","Océan indien",Maldives
105065,"Alimathaa Ponton",3.59074,73.498,"Vaavu Atoll","Océan indien",Maldives
105066,"Guraidhoo Corner",3.89,73.4684," Atoll Male Sud","Océan indien",Maldives
105067,Embudhoo,4.08636,73.5303,"South Male Atoll","Océan indien",Maldives
105232,"Gaahuraa Kandu",3.14198,73.5237,"Medhufushi Meemu Atoll","Laccadive Sea",Maldives
105233,"Burulu Corner",2.74888,73.3869,"Medhufushi Meemu Atoll","Laccadive Sea",Maldives
105234,"Dhiyamigili Corner",2.33803,73.33,"Thaa Atoll","Laccadive Sea",Maldives
105235,"Hithadhoo Corner",1.80199,73.3926,"Laamu Atoll","Laccadive Sea",Maldives
105236,"Mushimasmingili Thila / Fish Head",3.94345,72.9384,"North Ari Atoll","Ari Atoll",Maldives
105237,"Maavaru Kuda Thila",5.1516,72.861,"Baa atoll ","Indian Ocean",Maldives
105239,"Dhiffushi Kandu",2.51304,73.2329,"Thaa Atoll","Laccadive Sea",Maldives
105240,"Fushi Kandu",2.6965,72.8631,"Dhaalu Atoll"," 3° 51.495', 72° 54.754'",Maldives
105243,"Vaadhoo Thila",0.234227,73.2585,"Gaafu Dhaalu Atoll","Indian Ocean",Maldives
105244,Villingili,0.755209,73.4241,"Gaafu Alif Atoll","Laccadive Sea",Maldives
105246,Nilandhoo,0.632491,73.4331,"Gaafu Alif Atoll","Laccadive Sea",Maldives
105247,Kooddoo,0.721942,73.429,"Gaafu Alif Atoll","Laccadive Sea",Maldives
105248,"Hithadhoo Faru",-0.610435,73.0783,"Addu Atoll","Laccadive Sea",Maldives
105249,Gaadhoo,1.81076,73.4486,"Laamu Atoll","Medhufushi Meemu Atoll",Maldives
105250,"Fushi Kandu",2.04625,73.5377,"Laamu Atoll","Indian Ocean",Maldives
105252,Olugiri,2.5117,73.2576,"Thaa Atoll","Laccadive Sea",Maldives
105253,Kurali,2.77855,73.378,"Medhufushi Meemu Atoll","Laccadive Sea",Maldives
105254,"Muli Corner",2.93148,73.5881,"Medhufushi Meemu Atoll",Meppel,Maldives
105255,Vanhuravalhi,3.14884,73.5277,"Medhufushi Meemu Atoll","Laccadive Sea",Maldives
105256,Maduvvari,3.11216,73.5802,"Medhufushi Meemu Atoll","Laccadive Sea",Maldives
105257,Kondey,0.492758,73.5597,"Gaafu Alif Atoll","Laccadive Sea",Maldives
105276,"Coral City",5.08229,73.4815,"Nord Nilandhe Atoll, Filitheyo","Indian Ocean",Maldives
105277,"Strings Of Pearls",3.21382,73.0368,"Nord Nilandhe Atoll, Filitheyo","Indian Sea",Maldives
105278,"Fish Pan",3.21382,73.0368,"Nord Nilandhe Atoll, Filitheyo","Indian Sea",Maldives
105287,"Viligili Kandu",0.745373,73.4341,"Huvadhoo Atoll","Laccadive Sea",Maldives
105288,"Viligili Corner",0.746038,73.4377,"Huvadhoo Atoll","Laccadive Sea",Maldives
105289,"Maamendhoo Corner",0.722308,73.4409,"Huvadhoo Atoll","Laccadive Sea",Maldives
105290,Nilandhoo,0.632491,73.4331,"Gaafu Alif Atoll","Laccadive Sea",Maldives
105292,"Maarehaa Corner",0.457406,73.5683,"Huvadhoo Atoll","Laccadive Sea",Maldives
105295,"Gemanafushi Corner",0.45423,73.5698,"Huvadhoo Atoll","Laccadive Sea",Maldives
105303,"Dolphins Corner",3.21382,73.0368,"Nord Nilandhe Atoll, Filitheyo","Indian Sea",Maldives
105304,Kudafalhu,3.21382,73.0368,"Nord Nilandhe Atoll, Filitheyo","Indian Sea",Maldives
105305,"Lighthouse Chanel",3.21382,73.0368,"Nord Nilandhe Atoll, Filitheyo","Indian Sea",Maldives
105466,"Gemanafushi Outer Reef",0.452074,73.5721,"Huvadhoo Atoll","Laccadive Sea",Maldives
105467,"Maavarulaa Corner",0.447435,73.5106,"Huvadhoo Atoll","Laccadive Sea",Maldives
105468,"Lonudhoo Thila",0.307465,73.4237,"Huvadhoo Atoll","Laccadive Sea",Maldives
105469,"Foammulah West Wall",-0.306672,73.3996,"Fuvahmulah Atoll","Laccadive Sea",Maldives
105470,"Foammulah North Corner",-0.310255,73.4431,"Fuvahmulah Atoll","Laccadive Sea",Maldives
105471,"Dhiyadhoo Reef",0.474405,73.5311,"Huvadhoo Atoll","Laccadive Sea",Maldives
106421,"Lan Kan Reef",4.21653,73.5341,"Male Atoll","Male Atoll",Maldives
106422,"Nassimo Thila",4.1716,73.322,"Male Atoll","Male Atoll",Maldives
106423,"Sun Light Thila",4.22556,73.5205,"Male Atoll","Male Atoll",Maldives
106424,"Kuda Thila",4.30616,73.5378,"Süd Male Atoll","Süd Male Atoll",Maldives
106425,"Miyaru Faru",3.98585,73.5163,"Süd Male Atoll","Süd Male Atoll",Maldives
106426,"Kandhooma Thila",4.02677,73.5373,"Süd Male Atoll","Süd Male Atoll",Maldives
106427,"Alimata Faru",3.59083,73.4981,"Felidhe Atoll","Felidhe Atoll",Maldives
106428,"Miyaru Kandu",3.59236,73.5029,"Felidhe Atoll","Felidhe Atoll",Maldives
106429,"Golden Wall",3.44296,73.6019,"Felidhe Atoll","Felidhe Atoll",Maldives
106430,"Fotteyo Kandu",3.48781,73.6973,"Felidhe Atoll","Felidhe Atoll",Maldives
106431,"Fotteyo Kandu",3.48781,73.6973,"Felidhe Atoll","Felidhe Atoll",Maldives
106432,"Miyaru Kandu",3.59236,73.5029,"Felidhe Atoll","Felidhe Atoll",Maldives
106433,"Faru Kan",3.68072,73.4536,"Felidhe Atoll","Felidhe Atoll",Maldives
106434,"Faru Kan",3.68072,73.4536,"Felidhe Atoll","Felidhe Atoll",Maldives
106435,"Kunavashi Kandu",3.62795,73.3715,"Felidhe Atoll","Felidhe Atoll",Maldives
106436,"Broken Rock",3.55625,72.936,"Süd Ari Atoll","Süd Ari Atoll",Maldives
106437,"Kudarah Tila",3.53469,72.9274,"Süd Ari Atoll","Süd Ari Atoll",Maldives
106438,"Mv Kudhi Maa",3.59572,72.8843,"Süd Ari Atoll","Süd Ari Atoll",Maldives
106439,"Rahdhiga Thila",3.72949,72.759,"Süd Ari Atoll","Süd Ari Atoll",Maldives
106440,Panttone,3.80585,72.7136,"Süd Ari Atoll","Süd Ari Atoll",Maldives
106441,"Dhega Thila",3.84467,72.7501,"Süd Ari Atoll","Süd Ari Atoll",Maldives
106442,"Thudu Fushi Thila",3.80807,72.7155,"Süd Ari Atoll","Süd Ari Atoll",Maldives
106443,"Himandhoo Thila",3.91528,72.7141,"Süd Ari Atoll","Süd Ari Atoll",Maldives
106444,"Merofen Fushi",3.94496,72.881,"Süd Ari Atoll","Süd Ari Atoll",Maldives
106445,Fishhead,3.90673,72.9203,"Süd Ari Atoll","Süd Ari Atoll",Maldives
106446,"Maledive Victory",4.17685,73.5261,"Male Atoll","Male Atoll",Maldives
107224,Maduvvari,3.11216,73.5802,"Medhufushi Meemu Atoll","Laccadive Sea",Maldives
107623,Caves,4.25932,72.9822,"Kuramathi (Rasdhoo Atoll)","Indian Ocean",Maldives
107624,"Hammerhead Point",4.26353,73.0004,"Kuramathi (Rasdhoo Atoll)","Indian Ocean",Maldives
107964,"Kadhdhoo Kudagiri",1.86056,73.5214,"Laamu Atoll","Indian Ocean",Maldives
107966,"Olhugiri Kandu",1.97723,73.5361,"Laamu Atoll","Indian Ocean",Maldives
107968,"Kurali Kandu",1.97723,73.5361,"Laamu Atoll","Indian Ocean",Maldives
107969,"Gahura Kandu",1.97725,73.5361,"Medhufushi Meemu Atoll","Indian Ocean",Maldives
108655,"Manta Block",4.31679,73.0068,"Kuramathi (Rasdhoo Atoll)","Indian Ocean",Maldives
108690,"Fan Reef",4.25624,72.9833,"Kuramathi (Rasdhoo Atoll)","Indian Ocean",Maldives
109091,"Angaga Thila",3.64954,72.8216,"South Ari Atoll","Indian Ocean",Maldives
109194,"Losrichi Corner",4.1755,73.5093,"Male Atoll","OCEANS INDIEN",Maldives
109195,"Waa Ggiri",4.1755,73.5093,"Male Atoll","Indian Ocean",Maldives
109325,"Madivaru Corner",4.26444,73.0001,"Ari Atoll","Indian Ocean",Maldives
109491,"Turtle Rock",4.58232,73.4613,"North Male Atoll","Indian Ocean",Maldives
109589,"Guraidhoo Corner, Maldives",0,0,"South Male Atoll","Indian Ocean",Maldives
109590,"Miyaru Kandu, Maldives",0,0,"Felidhoo Atoll","Indian Ocean",Maldives
109591,"Fotteyo Thila, Maldives",0,0,"Felidhoo Atoll","Indian Ocean",Maldives
109606,Foamhulah,0,0,"Addu Atoll","Indian Ocean",Maldives
109607,Madigan,0,0,"Addu Atoll","Indian Ocean",Maldives
109608,"British Loyalty",0,0,"Addu Atoll","Indian Ocean",Maldives
109609,"Hitadhoo Kuda Kandu",0,0,"Addu Atoll","Indian Ocean",Maldives
110522,"Sun Island's House Reef",3.48849,72.8013,"South Ari Atoll","Laccadive Sea",Maldives
110545,"Broken Rock",3.55625,72.936,"South Ari Atoll","Laccadive Sea",Maldives
110547,"Kudadhoo Beyru",3.47607,72.8708,"South Ari Atoll","Laccadive Sea",Maldives
110580,"Thinfushi Etere Thila",3.56362,72.9393,"South Ari Atoll","Laccadive Sea",Maldives
110581,"Dhidhdoo Faru",3.48421,72.8877,"South Ari Atoll","Laccadive Sea",Maldives
110660,"Hurolhi Corner",3.55287,72.7089,"South Ari Atoll","Laccadive Sea",Maldives
110662,"Kuda Known Thila",3.54418,72.8181,"South Ari Atoll","Laccadive Sea",Maldives
110663,"Kudhimaa Wreck",3.5925,72.8809,"South Ari Atoll","Laccadive Sea",Maldives
110664,"Holiday Thila",3.495,72.8239,"South Ari Atoll","Laccadive Sea",Maldives
110798,"Sun Island's House Reef",3.48849,72.8013,"Ari Atoll","Laccadive Sea",Maldives
111372,Madivaru,4.5009,73.3685,"Kaafu Atoll","Indian Ocean",Maldives
111408,"Sheraton Lagoon",4.2501,73.5405,"North Male Atoll","Indian Ocean",Maldives
111410,"Potato Thila",4.25911,73.5332,"North Male Atoll","Indian Ocean",Maldives
111774,"Kuda Thila",4.2531,73.5415,"North Male Atoll","Indian Ocean",Maldives
111876,"Gaathu Giri",4.24923,73.5396,"North Male Atoll","Indian Ocean",Maldives
112210,"Lankan Manta Poiint",0,0,"Male Dives North Male Atoll","Indian Ocean",Maldives
112211,"Kuda Giri Wreck",0,0,"Male Dives South Male Atoll","Indian Ocean",Maldives
112212,"Medhu Fasu Corner",0,0,"Male Dives South Male Atoll","Indian Ocean",Maldives
112213,"Kandooma Thila",0,0,"Male Dives South Male Atoll","Indian Ocean",Maldives
112214,"Vilivasu Giri",0,0,"Male Dives South Male Atoll","Indian Ocean",Maldives
112215,"Guraidhoo Beyru",0,0,"Male Dives South Male Atoll","Indian Ocean",Maldives
112216,"Omadhoo Thila",0,0,"Male Dives North Male Atoll","Indian Ocean",Maldives
112217,"Mayaa Thila",0,0,"Male Dives North Male Atoll","Indian Ocean",Maldives
112218,"Hafushaa Thila",0,0,"Male Dives North Male Atoll","Indian Ocean",Maldives
112219,"Hafushaa Thila",0,0,"Male Dives North Male Atoll","Indian Ocean",Maldives
112220,"Hafushaa Thila",0,0,"Male Dives North Male Atoll","Indian Ocean",Maldives
